{"type":"point_trend","records":[{"id":"tg-1","psmsl_id":1,"dataset":"CSL tide-gauge VLM","dataset_id":"tide_gauge_dangendorf_2026","name":"BREST","longitude":-4.494838,"source_longitude":-4.494838,"latitude":48.38285,"up_mm_yr":-1.0291,"trend_intercept_mm":2036.9625,"first_year":1900.0,"last_year":2021.0,"sample_count":112,"abs_up":1.0291,"point_radius_m":27544,"series":[[1900.0,104.192],[1901.0,113.734],[1902.0,104.141],[1903.0,99.299],[1904.0,100.62],[1905.0,101.169],[1906.0,92.276],[1907.0,97.124],[1908.0,66.801],[1909.0,78.724],[1910.0,59.621],[1911.0,57.709],[1912.0,60.035],[1913.0,10.419],[1914.0,31.951],[1915.0,45.767],[1916.0,32.993],[1917.0,96.721],[1918.0,90.688],[1919.0,93.185],[1920.0,61.334],[1921.0,44.927],[1922.0,96.463],[1923.0,108.065],[1924.0,55.078],[1925.0,53.402],[1926.0,24.927],[1927.0,40.52],[1928.0,34.909],[1929.0,89.527],[1930.0,57.145],[1931.0,30.63],[1932.0,35.563],[1933.0,46.096],[1934.0,73.641],[1935.0,60.993],[1936.0,23.599],[1937.0,25.62],[1938.0,39.61],[1939.0,51.272],[1940.0,30.044],[1941.0,27.261],[1942.0,-8.344],[1943.0,-23.478],[1953.0,14.837],[1954.0,31.681],[1955.0,-19.768],[1956.0,37.587],[1957.0,15.556],[1958.0,24.218],[1959.0,21.68],[1960.0,-7.737],[1961.0,-12.219],[1962.0,-10.713],[1963.0,19.265],[1964.0,24.935],[1965.0,-1.741],[1966.0,-35.84],[1967.0,0.466],[1968.0,-31.427],[1969.0,-10.766],[1970.0,3.222],[1971.0,10.752],[1972.0,42.882],[1973.0,15.619],[1974.0,20.665],[1975.0,15.205],[1976.0,22.236],[1977.0,13.584],[1978.0,32.792],[1979.0,36.056],[1980.0,15.221],[1981.0,3.077],[1982.0,19.313],[1983.0,-6.976],[1984.0,-13.778],[1985.0,-11.703],[1986.0,13.433],[1987.0,-24.125],[1988.0,-18.991],[1989.0,-29.83],[1990.0,-19.728],[1991.0,3.662],[1992.0,8.107],[1993.0,-11.15],[1994.0,-0.255],[1995.0,-17.417],[1996.0,-22.084],[1997.0,-6.289],[1998.0,-4.359],[1999.0,-7.898],[2000.0,-14.517],[2001.0,-24.386],[2002.0,-1.523],[2003.0,-25.725],[2004.0,-20.942],[2005.0,-9.913],[2006.0,-2.3],[2007.0,-40.361],[2008.0,-36.296],[2009.0,-26.362],[2010.0,-58.22],[2011.0,-29.543],[2012.0,-20.247],[2013.0,-54.858],[2014.0,-39.063],[2015.0,-21.954],[2016.0,-33.527],[2017.0,-41.787],[2018.0,-38.612],[2019.0,-35.496],[2021.0,-62.151]],"nearby_gnss":[{"station":"BRST","longitude":-4.496593,"latitude":48.380495,"distance_km":0.29,"up_mm_yr":-1.136,"up_sigma_mm_yr":0.347,"first_year":1998.8309,"last_year":2026.1875,"duration":27.357},{"station":"BRES","longitude":-4.45491,"latitude":48.420687,"distance_km":5.14,"up_mm_yr":-0.638,"up_sigma_mm_yr":0.816,"first_year":2020.0958,"last_year":2026.3847,"duration":6.289},{"station":"A114","longitude":-4.562583,"latitude":48.358541,"distance_km":5.69,"up_mm_yr":-2.485,"up_sigma_mm_yr":1.074,"first_year":2022.1656,"last_year":2026.371,"duration":4.205},{"station":"GUIP","longitude":-4.411817,"latitude":48.444605,"distance_km":9.2,"up_mm_yr":-1.032,"up_sigma_mm_yr":0.36,"first_year":2002.7953,"last_year":2026.3901,"duration":23.595},{"station":"BGBC","longitude":-4.49651,"latitude":48.481011,"distance_km":10.92,"up_mm_yr":-2.226,"up_sigma_mm_yr":0.644,"first_year":2016.7392,"last_year":2022.7242,"duration":5.985},{"station":"PLAB","longitude":-4.412022,"latitude":48.511785,"distance_km":15.58,"up_mm_yr":-1.179,"up_sigma_mm_yr":0.536,"first_year":2007.9042,"last_year":2018.6721,"duration":10.768},{"station":"PLDN","longitude":-4.280845,"latitude":48.482227,"distance_km":19.27,"up_mm_yr":-2.235,"up_sigma_mm_yr":1.215,"first_year":2023.8522,"last_year":2026.3901,"duration":2.538},{"station":"LPPZ","longitude":-4.760393,"latitude":48.446262,"distance_km":20.83,"up_mm_yr":-0.834,"up_sigma_mm_yr":0.361,"first_year":2007.6386,"last_year":2026.3901,"duration":18.752},{"station":"PNDB","longitude":-4.092236,"latitude":48.297153,"distance_km":31.25,"up_mm_yr":-0.858,"up_sigma_mm_yr":0.61,"first_year":2002.7214,"last_year":2014.6092,"duration":11.888},{"station":"A145","longitude":-3.953884,"latitude":48.178466,"distance_km":46.03,"up_mm_yr":-0.008,"up_sigma_mm_yr":0.783,"first_year":2022.1656,"last_year":2026.371,"duration":4.205}]},{"id":"tg-10","psmsl_id":10,"dataset":"CSL tide-gauge VLM","dataset_id":"tide_gauge_dangendorf_2026","name":"SAN FRANCISCO","longitude":-122.465,"source_longitude":-122.465,"latitude":37.806667,"up_mm_yr":-1.3407,"trend_intercept_mm":2643.3489,"first_year":1900.0,"last_year":2021.0,"sample_count":121,"abs_up":1.3407,"point_radius_m":28011,"series":[[1900.0,94.204],[1901.0,96.041],[1902.0,115.74],[1903.0,81.402],[1904.0,61.098],[1905.0,83.19],[1906.0,98.277],[1907.0,98.568],[1908.0,107.821],[1909.0,106.193],[1910.0,90.329],[1911.0,81.64],[1912.0,80.768],[1913.0,71.2],[1914.0,49.58],[1915.0,69.985],[1916.0,91.989],[1917.0,72.46],[1918.0,37.675],[1919.0,72.87],[1920.0,86.795],[1921.0,44.495],[1922.0,81.049],[1923.0,79.591],[1924.0,80.079],[1925.0,46.048],[1926.0,44.474],[1927.0,55.38],[1928.0,49.874],[1929.0,54.148],[1930.0,35.033],[1931.0,59.505],[1932.0,43.914],[1933.0,59.174],[1934.0,36.286],[1935.0,47.446],[1936.0,59.957],[1937.0,44.392],[1938.0,56.382],[1939.0,51.678],[1940.0,62.184],[1941.0,30.727],[1942.0,62.679],[1943.0,52.482],[1944.0,41.288],[1945.0,22.58],[1946.0,42.869],[1947.0,37.131],[1948.0,34.482],[1949.0,16.573],[1950.0,29.243],[1951.0,21.054],[1952.0,24.475],[1953.0,37.814],[1954.0,36.162],[1955.0,31.861],[1956.0,27.718],[1957.0,0.058],[1958.0,12.839],[1959.0,4.434],[1960.0,25.817],[1961.0,11.632],[1962.0,-5.642],[1963.0,10.573],[1964.0,8.38],[1965.0,14.368],[1966.0,8.496],[1967.0,13.58],[1968.0,4.505],[1969.0,11.17],[1970.0,-2.561],[1971.0,2.321],[1972.0,-12.525],[1973.0,2.111],[1974.0,-15.898],[1975.0,-0.189],[1976.0,-11.967],[1977.0,15.246],[1978.0,-11.419],[1979.0,0.622],[1980.0,-4.331],[1981.0,-12.354],[1982.0,-10.498],[1983.0,-62.33],[1984.0,-56.215],[1985.0,-25.077],[1986.0,-31.315],[1987.0,-15.758],[1988.0,-33.249],[1989.0,-40.077],[1990.0,-34.36],[1991.0,1.827],[1992.0,-46.301],[1993.0,-25.048],[1994.0,-19.212],[1995.0,-33.726],[1996.0,-27.676],[1997.0,-21.28],[1998.0,-35.223],[1999.0,-26.497],[2000.0,-42.879],[2001.0,-42.298],[2002.0,-27.488],[2003.0,-29.448],[2004.0,-23.487],[2005.0,-23.629],[2006.0,-39.293],[2007.0,-20.444],[2008.0,-48.167],[2009.0,-42.118],[2010.0,-45.553],[2011.0,-48.228],[2013.0,-59.743],[2014.0,-80.432],[2015.0,-76.021],[2016.0,-52.792],[2017.0,-45.552],[2018.0,-71.304],[2019.0,-59.027],[2020.0,-78.809],[2021.0,-83.283]],"nearby_gnss":[{"station":"MHDL","longitude":-122.494336,"latitude":37.842323,"distance_km":4.73,"up_mm_yr":-0.161,"up_sigma_mm_yr":0.785,"first_year":2007.0034,"last_year":2024.1944,"duration":17.191},{"station":"MHLD","longitude":-122.49434,"latitude":37.842324,"distance_km":4.73,"up_mm_yr":-3.54,"up_sigma_mm_yr":2.628,"first_year":2024.2026,"last_year":2026.3901,"duration":2.188},{"station":"UCSF","longitude":-122.458154,"latitude":37.762969,"distance_km":4.9,"up_mm_yr":-0.569,"up_sigma_mm_yr":0.45,"first_year":2007.9726,"last_year":2026.3901,"duration":18.418},{"station":"PBL1","longitude":-122.418945,"latitude":37.853054,"distance_km":6.55,"up_mm_yr":-0.481,"up_sigma_mm_yr":0.796,"first_year":1995.5264,"last_year":2004.1834,"duration":8.657},{"station":"PBL2","longitude":-122.419393,"latitude":37.853225,"distance_km":6.55,"up_mm_yr":-7.248,"up_sigma_mm_yr":3.936,"first_year":1995.666,"last_year":2004.1834,"duration":8.517},{"station":"CCSF","longitude":-122.400458,"latitude":37.748793,"distance_km":8.58,"up_mm_yr":-0.435,"up_sigma_mm_yr":0.56,"first_year":2011.822,"last_year":2026.3901,"duration":14.568},{"station":"CADY","longitude":-122.505001,"latitude":37.727959,"distance_km":9.43,"up_mm_yr":-0.591,"up_sigma_mm_yr":0.637,"first_year":2016.1834,"last_year":2026.3901,"duration":10.207},{"station":"TIBB","longitude":-122.447604,"latitude":37.890876,"distance_km":9.49,"up_mm_yr":-0.954,"up_sigma_mm_yr":0.402,"first_year":1995.2088,"last_year":2026.3901,"duration":31.181},{"station":"SBRB","longitude":-122.410847,"latitude":37.68645,"distance_km":14.19,"up_mm_yr":-0.172,"up_sigma_mm_yr":1.027,"first_year":2008.6461,"last_year":2023.8303,"duration":15.184},{"station":"SBRU","longitude":-122.410849,"latitude":37.686452,"distance_km":14.19,"up_mm_yr":-0.73,"up_sigma_mm_yr":3.267,"first_year":2023.8412,"last_year":2026.3901,"duration":2.549}]},{"id":"tg-1001","psmsl_id":1001,"dataset":"CSL tide-gauge VLM","dataset_id":"tide_gauge_dangendorf_2026","name":"SAN JUAN","longitude":-66.115,"source_longitude":-66.115,"latitude":18.458333,"up_mm_yr":-0.3625,"trend_intercept_mm":721.0075,"first_year":1963.0,"last_year":2021.0,"sample_count":51,"abs_up":0.3625,"point_radius_m":26544,"series":[[1963.0,13.517],[1964.0,-5.808],[1965.0,42.18],[1966.0,10.448],[1967.0,9.609],[1968.0,53.457],[1969.0,13.949],[1970.0,8.776],[1971.0,-10.483],[1972.0,7.804],[1973.0,-25.58],[1974.0,-2.37],[1978.0,-8.589],[1979.0,16.477],[1980.0,-2.476],[1982.0,-15.172],[1983.0,-27.01],[1984.0,-4.438],[1985.0,-2.474],[1986.0,-4.895],[1987.0,9.177],[1990.0,39.432],[1991.0,-11.088],[1992.0,-5.307],[1993.0,7.163],[1994.0,-13.416],[1995.0,2.954],[1996.0,-4.579],[1997.0,-4.614],[1998.0,-18.997],[2000.0,8.634],[2001.0,-17.237],[2002.0,20.422],[2003.0,-5.361],[2004.0,11.074],[2005.0,-10.814],[2006.0,2.176],[2007.0,-13.439],[2008.0,-14.168],[2010.0,-29.996],[2011.0,1.452],[2012.0,-30.062],[2013.0,-2.094],[2014.0,-23.351],[2015.0,-27.223],[2016.0,-12.599],[2017.0,4.607],[2018.0,-1.071],[2019.0,1.549],[2020.0,1.272],[2021.0,-2.098]],"nearby_gnss":[{"station":"N240","longitude":-66.116411,"latitude":18.458938,"distance_km":0.16,"up_mm_yr":-0.996,"up_sigma_mm_yr":1.034,"first_year":2019.4962,"last_year":2026.3901,"duration":6.894},{"station":"BYSP","longitude":-66.161199,"latitude":18.407837,"distance_km":7.43,"up_mm_yr":0.607,"up_sigma_mm_yr":0.792,"first_year":2008.345,"last_year":2019.5756,"duration":11.231},{"station":"PRHL","longitude":-66.153558,"latitude":18.38003,"distance_km":9.61,"up_mm_yr":-0.731,"up_sigma_mm_yr":0.866,"first_year":2010.3463,"last_year":2026.3901,"duration":16.044},{"station":"ZSU4","longitude":-65.993476,"latitude":18.431337,"distance_km":13.17,"up_mm_yr":0.148,"up_sigma_mm_yr":0.632,"first_year":2003.1951,"last_year":2026.3901,"duration":23.195},{"station":"ECPR","longitude":-66.362819,"latitude":18.318806,"distance_km":30.41,"up_mm_yr":-0.593,"up_sigma_mm_yr":1.59,"first_year":2023.0007,"last_year":2026.3326,"duration":3.332},{"station":"PRLP","longitude":-65.868263,"latitude":18.194902,"distance_km":39.2,"up_mm_yr":-0.473,"up_sigma_mm_yr":0.827,"first_year":2010.4148,"last_year":2026.3901,"duration":15.975},{"station":"EMPR","longitude":-66.529548,"latitude":18.47705,"distance_km":43.77,"up_mm_yr":-0.22,"up_sigma_mm_yr":1.313,"first_year":2015.4962,"last_year":2026.3326,"duration":10.836},{"station":"HUPR","longitude":-65.838555,"latitude":18.148773,"distance_km":45.13,"up_mm_yr":-1.006,"up_sigma_mm_yr":0.972,"first_year":2015.4962,"last_year":2026.3326,"duration":10.836},{"station":"PDPR","longitude":-66.02275,"latitude":18.019521,"distance_km":49.76,"up_mm_yr":0.363,"up_sigma_mm_yr":1.192,"first_year":2015.822,"last_year":2026.3326,"duration":10.511},{"station":"PRN4","longitude":-66.369083,"latitude":18.078592,"distance_km":50.03,"up_mm_yr":-1.108,"up_sigma_mm_yr":0.77,"first_year":2010.089,"last_year":2026.3901,"duration":16.301}]},{"id":"tg-1002","psmsl_id":1002,"dataset":"CSL tide-gauge VLM","dataset_id":"tide_gauge_dangendorf_2026","name":"TRIBENI","longitude":88.4,"source_longitude":88.4,"latitude":22.983333,"up_mm_yr":-5.7441,"trend_intercept_mm":11799.5267,"first_year":1962.0,"last_year":2006.0,"sample_count":42,"abs_up":5.7441,"point_radius_m":34616,"series":[[1962.0,681.938],[1963.0,585.925],[1964.0,448.339],[1965.0,576.249],[1967.0,464.289],[1968.0,429.736],[1970.0,599.193],[1971.0,189.463],[1972.0,551.503],[1973.0,669.127],[1974.0,482.608],[1975.0,302.138],[1976.0,431.297],[1977.0,349.47],[1978.0,179.198],[1979.0,381.181],[1980.0,507.289],[1981.0,429.298],[1982.0,496.068],[1983.0,522.673],[1984.0,249.218],[1985.0,581.607],[1986.0,391.384],[1987.0,365.045],[1988.0,435.107],[1989.0,484.63],[1990.0,315.32],[1991.0,423.916],[1992.0,429.075],[1993.0,361.09],[1994.0,378.88],[1995.0,342.736],[1996.0,228.241],[1997.0,233.021],[1999.0,144.384],[2000.0,-7.945],[2001.0,423.29],[2002.0,209.966],[2003.0,446.907],[2004.0,346.613],[2005.0,367.658],[2006.0,398.579]],"nearby_gnss":[{"station":"ICHA","longitude":88.736028,"latitude":22.899897,"distance_km":35.64,"up_mm_yr":4.746,"up_sigma_mm_yr":5.025,"first_year":2013.8973,"last_year":2017.2047,"duration":3.307}]},{"id":"tg-1003","psmsl_id":1003,"dataset":"CSL tide-gauge VLM","dataset_id":"tide_gauge_dangendorf_2026","name":"HONNGU","longitude":105.766667,"source_longitude":105.766667,"latitude":18.8,"up_mm_yr":1.0986,"trend_intercept_mm":-2195.6518,"first_year":1962.0,"last_year":2013.0,"sample_count":34,"abs_up":1.0986,"point_radius_m":27648,"series":[[1962.0,-43.843],[1963.0,-17.868],[1964.0,-50.299],[1965.0,-21.384],[1967.0,-36.575],[1968.0,25.441],[1969.0,-28.015],[1970.0,-34.075],[1971.0,-33.883],[1973.0,-29.122],[1974.0,-189.676],[1977.0,-0.494],[1984.0,67.11],[1985.0,49.508],[1986.0,-48.95],[1990.0,20.952],[1991.0,-39.31],[1992.0,-68.836],[1993.0,-41.028],[1994.0,16.01],[1995.0,19.972],[2001.0,4.958],[2002.0,46.481],[2003.0,-23.839],[2004.0,-6.318],[2005.0,2.63],[2006.0,-14.857],[2007.0,-10.289],[2008.0,41.815],[2009.0,-19.72],[2010.0,8.515],[2011.0,17.752],[2012.0,51.753],[2013.0,23.027]],"nearby_gnss":[{"station":"VINH","longitude":105.677792,"latitude":18.683507,"distance_km":15.98,"up_mm_yr":1.603,"up_sigma_mm_yr":1.598,"first_year":2017.577,"last_year":2021.4949,"duration":3.918},{"station":"KANH","longitude":106.285406,"latitude":18.086872,"distance_km":96.34,"up_mm_yr":2.37,"up_sigma_mm_yr":4.821,"first_year":2019.7043,"last_year":2025.7002,"duration":5.996}]},{"id":"tg-1007","psmsl_id":1007,"dataset":"CSL tide-gauge VLM","dataset_id":"tide_gauge_dangendorf_2026","name":"WONSAN","longitude":127.45,"source_longitude":127.45,"latitude":39.166667,"up_mm_yr":0.3275,"trend_intercept_mm":-643.6837,"first_year":1962.0,"last_year":1992.0,"sample_count":31,"abs_up":0.3275,"point_radius_m":26491,"series":[[1962.0,-1.93],[1963.0,-4.668],[1964.0,1.087],[1965.0,-18.858],[1966.0,-7.708],[1967.0,4.204],[1968.0,-12.534],[1969.0,-10.114],[1970.0,7.013],[1971.0,-0.345],[1972.0,19.244],[1973.0,11.946],[1974.0,24.787],[1975.0,26.453],[1976.0,-14.408],[1977.0,14.389],[1978.0,39.907],[1979.0,19.231],[1980.0,-9.816],[1981.0,-23.556],[1982.0,-0.751],[1983.0,-4.188],[1984.0,-13.856],[1985.0,17.269],[1986.0,-15.978],[1987.0,17.086],[1988.0,54.826],[1989.0,-2.744],[1990.0,18.798],[1991.0,-8.726],[1992.0,-7.547]],"nearby_gnss":[{"station":"HCHN","longitude":127.67955,"latitude":38.308088,"distance_km":97.52,"up_mm_yr":-1.874,"up_sigma_mm_yr":1.305,"first_year":2017.0021,"last_year":2020.3422,"duration":3.34}]},{"id":"tg-1011","psmsl_id":1011,"dataset":"CSL tide-gauge VLM","dataset_id":"tide_gauge_dangendorf_2026","name":"ACAJUTLA","longitude":-89.833333,"source_longitude":-89.833333,"latitude":13.566667,"up_mm_yr":1.1318,"trend_intercept_mm":-2267.1081,"first_year":1963.0,"last_year":2000.0,"sample_count":38,"abs_up":1.1318,"point_radius_m":27698,"series":[[1963.0,-79.247],[1964.0,-32.137],[1965.0,-51.66],[1966.0,-0.946],[1967.0,-16.864],[1968.0,-33.63],[1969.0,-67.322],[1970.0,-13.249],[1971.0,-29.985],[1972.0,-55.851],[1973.0,-3.332],[1974.0,-35.539],[1975.0,-34.912],[1976.0,-27.896],[1977.0,-37.457],[1978.0,-54.537],[1979.0,-72.857],[1980.0,-23.464],[1981.0,-66.634],[1982.0,73.682],[1983.0,-66.914],[1984.0,-121.291],[1985.0,46.196],[1986.0,-5.337],[1987.0,-12.866],[1988.0,13.776],[1989.0,-11.05],[1990.0,-24.074],[1991.0,-32.066],[1992.0,-34.624],[1993.0,-1.095],[1994.0,2.507],[1995.0,-0.808],[1996.0,21.239],[1997.0,-21.827],[1998.0,-8.92],[1999.0,-0.409],[2000.0,-11.042]],"nearby_gnss":[{"station":"SNJE","longitude":-89.600692,"latitude":13.868247,"distance_km":41.91,"up_mm_yr":-2.487,"up_sigma_mm_yr":2.607,"first_year":2007.217,"last_year":2021.4127,"duration":14.196},{"station":"CNR1","longitude":-89.28901,"latitude":13.67044,"distance_km":59.95,"up_mm_yr":11.009,"up_sigma_mm_yr":2.767,"first_year":2008.1807,"last_year":2021.4127,"duration":13.232},{"station":"SSSV","longitude":-89.231648,"latitude":13.687416,"distance_km":66.39,"up_mm_yr":-2.57,"up_sigma_mm_yr":4.015,"first_year":2018.1246,"last_year":2024.7091,"duration":6.585},{"station":"SSIA","longitude":-89.116596,"latitude":13.697085,"distance_km":78.8,"up_mm_yr":0.572,"up_sigma_mm_yr":3.635,"first_year":2000.742,"last_year":2026.3655,"duration":25.623},{"station":"AIES","longitude":-89.050396,"latitude":13.447258,"distance_km":85.69,"up_mm_yr":0.631,"up_sigma_mm_yr":2.399,"first_year":2007.3484,"last_year":2021.3662,"duration":14.018}]},{"id":"tg-1012","psmsl_id":1012,"dataset":"CSL tide-gauge VLM","dataset_id":"tide_gauge_dangendorf_2026","name":"KRENKELIA (HEISA OSTROV)","longitude":58.05,"source_longitude":58.05,"latitude":80.616667,"up_mm_yr":-0.821,"trend_intercept_mm":1526.2507,"first_year":1962.0,"last_year":1999.0,"sample_count":36,"abs_up":0.821,"point_radius_m":27232,"series":[[1962.0,-248.074],[1963.0,-93.194],[1964.0,-71.317],[1965.0,-104.396],[1966.0,-110.399],[1967.0,-99.92],[1968.0,-101.634],[1969.0,-88.788],[1970.0,-70.551],[1971.0,-70.051],[1972.0,-104.504],[1973.0,-67.499],[1974.0,-102.049],[1975.0,-90.941],[1976.0,-104.671],[1977.0,-87.134],[1978.0,-112.754],[1979.0,-18.049],[1980.0,29.425],[1981.0,-41.373],[1982.0,-80.968],[1983.0,-73.862],[1984.0,-78.927],[1985.0,-114.698],[1986.0,-86.212],[1987.0,-57.736],[1989.0,-80.583],[1990.0,-125.819],[1991.0,-133.735],[1992.0,-84.472],[1994.0,-111.426],[1995.0,-114.401],[1996.0,-155.879],[1997.0,-174.511],[1998.0,-168.16],[1999.0,-175.511]],"nearby_gnss":[]},{"id":"tg-1026","psmsl_id":1026,"dataset":"CSL tide-gauge VLM","dataset_id":"tide_gauge_dangendorf_2026","name":"ONISAKI","longitude":136.823611,"source_longitude":136.823611,"latitude":34.903889,"up_mm_yr":5.2347,"trend_intercept_mm":-10438.3215,"first_year":1966.0,"last_year":2014.0,"sample_count":47,"abs_up":5.2347,"point_radius_m":33852,"series":[[1966.0,-97.889],[1967.0,-57.108],[1968.0,-100.357],[1969.0,-90.962],[1970.0,-54.258],[1971.0,-62.716],[1972.0,-100.518],[1973.0,-52.93],[1974.0,-102.077],[1975.0,-131.27],[1976.0,-223.643],[1977.0,-124.768],[1978.0,-173.598],[1979.0,-130.601],[1980.0,-104.396],[1981.0,-85.42],[1982.0,-100.298],[1983.0,-111.721],[1986.0,-65.486],[1987.0,-95.956],[1988.0,-26.957],[1989.0,-33.981],[1990.0,-68.307],[1991.0,-8.283],[1992.0,-47.167],[1993.0,27.83],[1994.0,12.342],[1995.0,34.906],[1996.0,38.645],[1997.0,41.659],[1998.0,28.184],[1999.0,20.98],[2000.0,5.648],[2001.0,20.71],[2002.0,49.353],[2003.0,68.344],[2004.0,27.298],[2005.0,77.359],[2006.0,97.02],[2007.0,66.769],[2008.0,50.085],[2009.0,65.669],[2010.0,110.838],[2011.0,113.587],[2012.0,85.062],[2013.0,121.929],[2014.0,146.088]],"nearby_gnss":[{"station":"G116","longitude":136.823845,"latitude":34.903965,"distance_km":0.02,"up_mm_yr":4.722,"up_sigma_mm_yr":1.574,"first_year":2003.4442,"last_year":2023.165,"duration":19.721},{"station":"J632","longitude":136.831879,"latitude":34.904385,"distance_km":0.76,"up_mm_yr":4.808,"up_sigma_mm_yr":0.818,"first_year":1997.232,"last_year":2026.3901,"duration":29.158},{"station":"J631","longitude":136.86275,"latitude":34.984394,"distance_km":9.64,"up_mm_yr":4.788,"up_sigma_mm_yr":0.629,"first_year":1997.1362,"last_year":2026.3901,"duration":29.254},{"station":"J304","longitude":136.867644,"latitude":34.823356,"distance_km":9.81,"up_mm_yr":3.181,"up_sigma_mm_yr":0.708,"first_year":1996.219,"last_year":2026.3901,"duration":30.171},{"station":"J309","longitude":136.636502,"latitude":34.913803,"distance_km":17.1,"up_mm_yr":3.309,"up_sigma_mm_yr":0.928,"first_year":1996.2683,"last_year":2026.3901,"duration":30.122},{"station":"J633","longitude":136.694252,"latitude":35.050911,"distance_km":20.15,"up_mm_yr":3.032,"up_sigma_mm_yr":0.765,"first_year":1997.2539,"last_year":2026.3901,"duration":29.136},{"station":"J998","longitude":136.938482,"latitude":34.740051,"distance_km":21.02,"up_mm_yr":4.418,"up_sigma_mm_yr":0.708,"first_year":2004.4983,"last_year":2026.3901,"duration":21.892},{"station":"J302","longitude":137.059779,"latitude":34.994992,"distance_km":23.79,"up_mm_yr":3.908,"up_sigma_mm_yr":0.741,"first_year":1996.2793,"last_year":2026.3901,"duration":30.111},{"station":"J305","longitude":137.118998,"latitude":34.794871,"distance_km":29.56,"up_mm_yr":4.651,"up_sigma_mm_yr":0.73,"first_year":1996.219,"last_year":2026.3901,"duration":30.171},{"station":"J996","longitude":137.15239,"latitude":34.917341,"distance_km":30.02,"up_mm_yr":5.883,"up_sigma_mm_yr":0.887,"first_year":2004.4983,"last_year":2019.9836,"duration":15.485}]},{"id":"tg-1027","psmsl_id":1027,"dataset":"CSL tide-gauge VLM","dataset_id":"tide_gauge_dangendorf_2026","name":"OSHORO II","longitude":140.858056,"source_longitude":140.858056,"latitude":43.209444,"up_mm_yr":1.3041,"trend_intercept_mm":-2596.4462,"first_year":1968.0,"last_year":2014.0,"sample_count":47,"abs_up":1.3041,"point_radius_m":27956,"series":[[1968.0,-7.594],[1969.0,-19.144],[1970.0,-12.064],[1971.0,-31.254],[1972.0,-33.008],[1973.0,-27.879],[1974.0,-41.896],[1975.0,2.276],[1976.0,-24.963],[1977.0,-3.893],[1978.0,2.226],[1979.0,-13.629],[1980.0,-0.347],[1981.0,-28.556],[1982.0,-11.091],[1983.0,-24.394],[1984.0,-18.755],[1985.0,-12.231],[1986.0,-38.462],[1987.0,-18.022],[1988.0,7.295],[1989.0,-7.456],[1990.0,-5.031],[1991.0,-22.427],[1992.0,0.413],[1993.0,-18.717],[1994.0,10.917],[1995.0,6.045],[1996.0,-2.929],[1997.0,11.287],[1998.0,21.317],[1999.0,16.319],[2000.0,2.283],[2001.0,32.375],[2002.0,9.164],[2003.0,24.698],[2004.0,5.016],[2005.0,22.939],[2006.0,35.451],[2007.0,17.165],[2008.0,22.196],[2009.0,7.818],[2010.0,22.323],[2011.0,22.326],[2012.0,39.851],[2013.0,35.892],[2014.0,47.026]],"nearby_gnss":[{"station":"G101","longitude":140.858312,"latitude":43.209524,"distance_km":0.02,"up_mm_yr":2.647,"up_sigma_mm_yr":1.063,"first_year":2003.4223,"last_year":2023.165,"duration":19.743},{"station":"J517","longitude":140.860617,"latitude":43.209509,"distance_km":0.21,"up_mm_yr":2.452,"up_sigma_mm_yr":0.646,"first_year":1997.1362,"last_year":2026.3901,"duration":29.254},{"station":"J013","longitude":141.030915,"latitude":43.177853,"distance_km":14.45,"up_mm_yr":2.969,"up_sigma_mm_yr":0.851,"first_year":1994.6804,"last_year":2026.3901,"duration":31.71},{"station":"J884","longitude":140.81112,"latitude":43.082594,"distance_km":14.61,"up_mm_yr":4.084,"up_sigma_mm_yr":0.915,"first_year":2003.1513,"last_year":2026.3901,"duration":23.239},{"station":"J120","longitude":140.597073,"latitude":43.292583,"distance_km":23.07,"up_mm_yr":2.388,"up_sigma_mm_yr":0.79,"first_year":1996.219,"last_year":2026.3901,"duration":30.171},{"station":"J882","longitude":141.203294,"latitude":43.140394,"distance_km":29.03,"up_mm_yr":3.361,"up_sigma_mm_yr":0.7,"first_year":2003.1513,"last_year":2026.3901,"duration":23.239},{"station":"QSPP","longitude":141.217068,"latitude":43.150235,"distance_km":29.85,"up_mm_yr":2.886,"up_sigma_mm_yr":2.007,"first_year":2022.0014,"last_year":2026.371,"duration":4.37},{"station":"J126","longitude":140.499172,"latitude":43.056828,"distance_km":33.71,"up_mm_yr":4.144,"up_sigma_mm_yr":0.584,"first_year":1996.219,"last_year":2026.3901,"duration":30.171},{"station":"J127","longitude":140.543938,"latitude":42.985253,"distance_km":35.66,"up_mm_yr":4.603,"up_sigma_mm_yr":0.675,"first_year":1996.2628,"last_year":2026.3901,"duration":30.127},{"station":"G219","longitude":140.88335,"latitude":42.857973,"distance_km":39.14,"up_mm_yr":5.3,"up_sigma_mm_yr":1.273,"first_year":2017.9274,"last_year":2026.3901,"duration":8.463}]},{"id":"tg-1028","psmsl_id":1028,"dataset":"CSL tide-gauge VLM","dataset_id":"tide_gauge_dangendorf_2026","name":"HIROSIMA","longitude":132.464722,"source_longitude":132.464722,"latitude":34.353056,"up_mm_yr":-3.0638,"trend_intercept_mm":6107.7337,"first_year":1964.0,"last_year":2021.0,"sample_count":55,"abs_up":3.0638,"point_radius_m":30596,"series":[[1964.0,83.029],[1965.0,122.027],[1966.0,89.979],[1967.0,68.573],[1968.0,100.582],[1969.0,53.855],[1970.0,104.264],[1971.0,92.789],[1972.0,48.663],[1973.0,54.514],[1974.0,26.877],[1975.0,48.47],[1976.0,37.38],[1977.0,37.349],[1978.0,42.67],[1979.0,27.587],[1980.0,42.831],[1981.0,2.675],[1982.0,42.152],[1983.0,48.73],[1984.0,53.583],[1985.0,64.186],[1986.0,26.653],[1988.0,30.81],[1989.0,-25.747],[1990.0,54.951],[1991.0,-2.025],[1992.0,-9.379],[1993.0,24.292],[1994.0,-34.551],[1995.0,-13.228],[1996.0,42.123],[1997.0,-41.742],[1998.0,-17.112],[1999.0,-57.774],[2000.0,4.35],[2001.0,-5.823],[2002.0,-54.394],[2003.0,-80.281],[2005.0,2.887],[2006.0,-45.816],[2007.0,-20.587],[2008.0,-4.322],[2009.0,-15.161],[2010.0,-27.151],[2011.0,-54.832],[2012.0,-90.981],[2013.0,-55.919],[2014.0,-106.717],[2015.0,-99.847],[2016.0,-72.714],[2017.0,-53.986],[2019.0,-49.111],[2020.0,-109.362],[2021.0,-59.039]],"nearby_gnss":[{"station":"J078","longitude":132.57544,"latitude":34.340353,"distance_km":10.26,"up_mm_yr":0.315,"up_sigma_mm_yr":0.667,"first_year":1994.6804,"last_year":2026.3901,"duration":31.71},{"station":"J666","longitude":132.455546,"latitude":34.260922,"distance_km":10.28,"up_mm_yr":-1.49,"up_sigma_mm_yr":0.736,"first_year":1997.1362,"last_year":2026.3901,"duration":29.254},{"station":"J406","longitude":132.344948,"latitude":34.369512,"distance_km":11.15,"up_mm_yr":-5.645,"up_sigma_mm_yr":1.958,"first_year":1996.219,"last_year":2007.4223,"duration":11.203},{"station":"G157","longitude":132.339822,"latitude":34.397047,"distance_km":12.46,"up_mm_yr":-1.094,"up_sigma_mm_yr":0.819,"first_year":2008.2491,"last_year":2026.3901,"duration":18.141},{"station":"J403","longitude":132.463469,"latitude":34.539158,"distance_km":20.69,"up_mm_yr":-1.45,"up_sigma_mm_yr":0.934,"first_year":1996.219,"last_year":2026.3901,"duration":30.171},{"station":"G034","longitude":132.650012,"latitude":34.491419,"distance_km":22.93,"up_mm_yr":8.415,"up_sigma_mm_yr":3.846,"first_year":2004.4983,"last_year":2006.5517,"duration":2.053},{"station":"G151","longitude":132.650324,"latitude":34.49214,"distance_km":23.0,"up_mm_yr":-1.402,"up_sigma_mm_yr":0.871,"first_year":2007.9206,"last_year":2019.9535,"duration":12.033},{"station":"G236","longitude":132.651121,"latitude":34.492654,"distance_km":23.09,"up_mm_yr":-1.83,"up_sigma_mm_yr":2.286,"first_year":2020.6735,"last_year":2023.1266,"duration":2.453},{"station":"J665","longitude":132.194654,"latitude":34.370346,"distance_km":24.86,"up_mm_yr":-0.794,"up_sigma_mm_yr":0.747,"first_year":1997.2348,"last_year":2026.3901,"duration":29.155},{"station":"G035","longitude":132.691963,"latitude":34.184636,"distance_km":28.05,"up_mm_yr":1.256,"up_sigma_mm_yr":0.853,"first_year":2004.4983,"last_year":2026.3901,"duration":21.892}]},{"id":"tg-1032","psmsl_id":1032,"dataset":"CSL tide-gauge VLM","dataset_id":"tide_gauge_dangendorf_2026","name":"ILHA FISCAL","longitude":-43.166667,"source_longitude":-43.166667,"latitude":-22.896667,"up_mm_yr":-0.4042,"trend_intercept_mm":800.6047,"first_year":1965.0,"last_year":2016.0,"sample_count":49,"abs_up":0.4042,"point_radius_m":26606,"series":[[1965.0,101.696],[1966.0,176.738],[1967.0,96.054],[1968.0,103.023],[1969.0,73.346],[1970.0,149.854],[1971.0,-34.118],[1972.0,11.243],[1973.0,-71.751],[1974.0,5.061],[1975.0,-80.166],[1976.0,-86.124],[1977.0,-50.931],[1978.0,-37.8],[1979.0,-118.768],[1981.0,-78.068],[1982.0,-129.917],[1983.0,-75.501],[1984.0,-46.349],[1985.0,-25.574],[1986.0,-67.079],[1989.0,-67.396],[1990.0,-18.086],[1991.0,5.863],[1992.0,26.999],[1993.0,-40.919],[1994.0,-115.81],[1995.0,-111.278],[1996.0,-38.774],[1997.0,30.854],[1998.0,57.18],[1999.0,7.943],[2000.0,27.332],[2001.0,37.16],[2002.0,23.651],[2003.0,33.824],[2004.0,74.11],[2005.0,64.403],[2006.0,56.97],[2007.0,61.804],[2008.0,61.27],[2009.0,-35.999],[2010.0,-20.868],[2011.0,-26.862],[2012.0,5.354],[2013.0,-42.9],[2014.0,1.013],[2015.0,-20.37],[2016.0,-52.426]],"nearby_gnss":[{"station":"RJNI","longitude":-43.133805,"latitude":-22.905933,"distance_km":3.52,"up_mm_yr":-0.485,"up_sigma_mm_yr":0.683,"first_year":2019.4497,"last_year":2026.3354,"duration":6.886},{"station":"ONRJ","longitude":-43.224332,"latitude":-22.895699,"distance_km":5.91,"up_mm_yr":0.175,"up_sigma_mm_yr":0.454,"first_year":2007.2444,"last_year":2026.3354,"duration":19.091},{"station":"RIOD","longitude":-43.306277,"latitude":-22.817843,"distance_km":16.78,"up_mm_yr":-0.47,"up_sigma_mm_yr":0.693,"first_year":2002.0068,"last_year":2019.4442,"duration":17.437},{"station":"NXRA","longitude":-43.283732,"latitude":-22.586794,"distance_km":36.49,"up_mm_yr":-0.094,"up_sigma_mm_yr":1.023,"first_year":2016.3203,"last_year":2021.1006,"duration":4.78},{"station":"RJVA","longitude":-43.651864,"latitude":-22.402209,"distance_km":74.18,"up_mm_yr":-1.214,"up_sigma_mm_yr":0.873,"first_year":2018.9459,"last_year":2026.3354,"duration":7.389},{"station":"RJFB","longitude":-42.541106,"latitude":-22.286259,"distance_km":93.44,"up_mm_yr":-2.654,"up_sigma_mm_yr":2.111,"first_year":2024.5065,"last_year":2026.3354,"duration":1.829}]},{"id":"tg-1034","psmsl_id":1034,"dataset":"CSL tide-gauge VLM","dataset_id":"tide_gauge_dangendorf_2026","name":"TAI PO KAU, TOLO HARBOUR","longitude":114.183889,"source_longitude":114.183889,"latitude":22.4425,"up_mm_yr":-0.7239,"trend_intercept_mm":1435.8457,"first_year":1963.0,"last_year":2021.0,"sample_count":55,"abs_up":0.7239,"point_radius_m":27086,"series":[[1963.0,37.432],[1964.0,33.405],[1965.0,-5.216],[1966.0,18.879],[1967.0,33.509],[1969.0,33.562],[1970.0,-107.983],[1971.0,-27.532],[1972.0,-54.844],[1973.0,-35.648],[1974.0,-37.01],[1975.0,-11.44],[1976.0,14.852],[1977.0,1.463],[1978.0,23.846],[1979.0,35.772],[1980.0,18.135],[1981.0,29.334],[1982.0,62.34],[1983.0,76.191],[1984.0,35.247],[1986.0,4.302],[1988.0,16.978],[1989.0,13.205],[1990.0,26.579],[1991.0,13.945],[1992.0,15.052],[1993.0,-6.93],[1994.0,-15.077],[1995.0,-69.317],[1996.0,-64.516],[1998.0,-23.533],[1999.0,20.405],[2000.0,-3.521],[2001.0,-47.937],[2002.0,-9.838],[2003.0,-22.75],[2004.0,-11.254],[2005.0,-23.964],[2006.0,43.758],[2007.0,-10.567],[2008.0,-13.896],[2009.0,17.038],[2010.0,-20.62],[2011.0,-8.903],[2012.0,-43.988],[2013.0,-47.141],[2014.0,-47.473],[2015.0,-21.634],[2016.0,-64.558],[2017.0,-54.837],[2018.0,3.416],[2019.0,-27.951],[2020.0,-49.002],[2021.0,-5.664]],"nearby_gnss":[{"station":"HKST","longitude":114.184247,"latitude":22.395269,"distance_km":5.25,"up_mm_yr":0.066,"up_sigma_mm_yr":0.499,"first_year":2000.7721,"last_year":2026.3901,"duration":25.618},{"station":"HKFN","longitude":114.138172,"latitude":22.494685,"distance_km":7.47,"up_mm_yr":-0.152,"up_sigma_mm_yr":0.578,"first_year":2000.7693,"last_year":2025.1034,"duration":24.334},{"station":"Q430","longitude":114.138201,"latitude":22.49472,"distance_km":7.47,"up_mm_yr":0.414,"up_sigma_mm_yr":5.11,"first_year":2003.7837,"last_year":2007.7426,"duration":3.959},{"station":"T430","longitude":114.138205,"latitude":22.494719,"distance_km":7.47,"up_mm_yr":0.854,"up_sigma_mm_yr":0.657,"first_year":1999.8303,"last_year":2024.2656,"duration":24.435},{"station":"HKSS","longitude":114.269299,"latitude":22.431066,"distance_km":8.87,"up_mm_yr":-0.069,"up_sigma_mm_yr":0.516,"first_year":2005.0157,"last_year":2026.3901,"duration":21.374},{"station":"TCHK","longitude":114.217834,"latitude":22.357714,"distance_km":10.05,"up_mm_yr":0.622,"up_sigma_mm_yr":1.643,"first_year":2020.0849,"last_year":2024.7091,"duration":4.624},{"station":"HKKT","longitude":114.06657,"latitude":22.444904,"distance_km":12.06,"up_mm_yr":-0.236,"up_sigma_mm_yr":0.536,"first_year":2000.7693,"last_year":2026.371,"duration":25.602},{"station":"HKTK","longitude":114.223285,"latitude":22.546567,"distance_km":12.26,"up_mm_yr":0.514,"up_sigma_mm_yr":0.713,"first_year":2014.2888,"last_year":2026.3901,"duration":12.101},{"station":"HKSC","longitude":114.141193,"latitude":22.32217,"distance_km":14.08,"up_mm_yr":-0.266,"up_sigma_mm_yr":0.518,"first_year":2003.0007,"last_year":2026.3901,"duration":23.389},{"station":"HKKS","longitude":114.31194,"latitude":22.367897,"distance_km":15.56,"up_mm_yr":0.442,"up_sigma_mm_yr":0.73,"first_year":2014.2888,"last_year":2024.2656,"duration":9.977}]},{"id":"tg-1036","psmsl_id":1036,"dataset":"CSL tide-gauge VLM","dataset_id":"tide_gauge_dangendorf_2026","name":"AMRUM (WITTDUEN)","longitude":8.383333,"source_longitude":8.383333,"latitude":54.616667,"up_mm_yr":0.1389,"trend_intercept_mm":-256.9817,"first_year":1963.0,"last_year":2013.0,"sample_count":51,"abs_up":0.1389,"point_radius_m":26208,"series":[[1963.0,27.882],[1964.0,23.047],[1965.0,5.18],[1966.0,14.717],[1967.0,0.42],[1968.0,18.78],[1969.0,5.053],[1970.0,1.34],[1971.0,3.308],[1972.0,22.779],[1973.0,-6.906],[1974.0,2.409],[1975.0,27.691],[1976.0,12.309],[1977.0,16.489],[1978.0,32.556],[1979.0,49.726],[1980.0,26.573],[1981.0,33.77],[1982.0,-19.416],[1983.0,50.194],[1984.0,53.765],[1985.0,17.214],[1986.0,56.348],[1987.0,29.037],[1988.0,1.65],[1989.0,25.35],[1990.0,-37.394],[1991.0,80.283],[1992.0,37.812],[1993.0,16.359],[1994.0,32.828],[1995.0,23.236],[1996.0,6.333],[1997.0,12.663],[1998.0,33.563],[1999.0,26.365],[2000.0,23.504],[2001.0,-6.289],[2002.0,-22.622],[2003.0,-38.852],[2004.0,11.485],[2005.0,30.859],[2006.0,9.484],[2007.0,20.362],[2008.0,21.408],[2009.0,9.254],[2010.0,9.36],[2011.0,42.23],[2012.0,44.778],[2013.0,60.885]],"nearby_gnss":[{"station":"TGWD","longitude":8.383942,"latitude":54.631772,"distance_km":1.68,"up_mm_yr":-0.527,"up_sigma_mm_yr":0.545,"first_year":2011.4935,"last_year":2026.3546,"duration":14.861},{"station":"HOE2","longitude":8.293389,"latitude":54.758753,"distance_km":16.82,"up_mm_yr":-0.006,"up_sigma_mm_yr":0.808,"first_year":2003.5373,"last_year":2015.3785,"duration":11.841},{"station":"LFS2","longitude":8.486223,"latitude":54.446419,"distance_km":20.06,"up_mm_yr":-0.671,"up_sigma_mm_yr":0.731,"first_year":2018.2943,"last_year":2026.3272,"duration":8.033},{"station":"LFSU","longitude":8.477836,"latitude":54.42436,"distance_km":22.24,"up_mm_yr":-0.456,"up_sigma_mm_yr":1.484,"first_year":2015.1896,"last_year":2017.5797,"duration":2.39},{"station":"RANT","longitude":8.290755,"latitude":54.810554,"distance_km":22.36,"up_mm_yr":-0.481,"up_sigma_mm_yr":0.644,"first_year":2014.3518,"last_year":2026.371,"duration":12.019},{"station":"TGDA","longitude":8.687057,"latitude":54.730509,"distance_km":23.27,"up_mm_yr":-0.562,"up_sigma_mm_yr":0.526,"first_year":2009.3826,"last_year":2026.3546,"duration":16.972},{"station":"NOR6","longitude":8.807786,"latitude":54.496524,"distance_km":30.46,"up_mm_yr":-1.403,"up_sigma_mm_yr":5.279,"first_year":2013.1964,"last_year":2018.5982,"duration":5.402},{"station":"NIE1","longitude":8.844414,"latitude":54.792932,"distance_km":35.52,"up_mm_yr":-1.956,"up_sigma_mm_yr":4.602,"first_year":2013.1964,"last_year":2018.5982,"duration":5.402},{"station":"SYLT","longitude":8.412156,"latitude":55.011569,"distance_km":43.95,"up_mm_yr":-0.628,"up_sigma_mm_yr":0.46,"first_year":1999.0034,"last_year":2026.371,"duration":27.368},{"station":"MOJN","longitude":8.805387,"latitude":54.94432,"distance_km":45.39,"up_mm_yr":0.209,"up_sigma_mm_yr":0.695,"first_year":2017.9685,"last_year":2026.371,"duration":8.402}]},{"id":"tg-1037","psmsl_id":1037,"dataset":"CSL tide-gauge VLM","dataset_id":"tide_gauge_dangendorf_2026","name":"BORKUM (FISCHERBALJE)","longitude":6.747778,"source_longitude":6.747778,"latitude":53.5575,"up_mm_yr":-0.4842,"trend_intercept_mm":982.4563,"first_year":1963.0,"last_year":2016.0,"sample_count":54,"abs_up":0.4842,"point_radius_m":26726,"series":[[1963.0,52.401],[1964.0,60.728],[1965.0,17.127],[1966.0,13.844],[1967.0,-12.534],[1968.0,7.114],[1969.0,1.473],[1970.0,-8.477],[1971.0,8.215],[1972.0,23.63],[1973.0,-6.814],[1974.0,7.339],[1975.0,13.513],[1976.0,29.535],[1977.0,29.264],[1978.0,50.761],[1979.0,49.385],[1980.0,30.745],[1981.0,42.269],[1982.0,32.763],[1983.0,13.626],[1984.0,45.998],[1985.0,32.212],[1986.0,47.559],[1987.0,27.711],[1988.0,24.997],[1989.0,39.991],[1990.0,35.753],[1991.0,18.753],[1992.0,54.787],[1993.0,33.136],[1994.0,7.498],[1995.0,31.333],[1996.0,27.514],[1997.0,24.291],[1998.0,38.684],[1999.0,13.292],[2000.0,42.365],[2001.0,8.316],[2002.0,26.653],[2003.0,21.751],[2004.0,23.512],[2005.0,14.238],[2006.0,-6.464],[2007.0,26.383],[2008.0,-0.504],[2009.0,-14.753],[2010.0,1.895],[2011.0,-16.192],[2012.0,12.356],[2013.0,-9.159],[2014.0,-30.716],[2015.0,-11.438],[2016.0,-16.783]],"nearby_gnss":[{"station":"TGBF","longitude":6.747921,"latitude":53.557428,"distance_km":0.01,"up_mm_yr":-0.354,"up_sigma_mm_yr":0.507,"first_year":2009.3415,"last_year":2026.3546,"duration":17.013},{"station":"BORK","longitude":6.747447,"latitude":53.563658,"distance_km":0.69,"up_mm_yr":-1.128,"up_sigma_mm_yr":0.42,"first_year":2000.835,"last_year":2026.371,"duration":25.536},{"station":"BORJ","longitude":6.666433,"latitude":53.578909,"distance_km":5.88,"up_mm_yr":-1.02,"up_sigma_mm_yr":0.491,"first_year":2005.4374,"last_year":2026.371,"duration":20.934},{"station":"TGBS","longitude":6.661439,"latitude":53.576882,"distance_km":6.1,"up_mm_yr":-0.932,"up_sigma_mm_yr":0.911,"first_year":2016.5503,"last_year":2026.3546,"duration":9.804},{"station":"EMS1","longitude":6.84123,"latitude":53.49352,"distance_km":9.42,"up_mm_yr":-0.372,"up_sigma_mm_yr":0.985,"first_year":2020.6708,"last_year":2026.3546,"duration":5.684},{"station":"TGEH","longitude":6.841229,"latitude":53.493519,"distance_km":9.42,"up_mm_yr":0.379,"up_sigma_mm_yr":1.179,"first_year":2016.7173,"last_year":2020.5476,"duration":3.83},{"station":"UITH","longitude":6.806526,"latitude":53.449436,"distance_km":12.63,"up_mm_yr":-3.881,"up_sigma_mm_yr":0.717,"first_year":2018.2971,"last_year":2025.9986,"duration":7.702},{"station":"USQU","longitude":6.622353,"latitude":53.425023,"distance_km":16.91,"up_mm_yr":-2.466,"up_sigma_mm_yr":0.572,"first_year":2014.256,"last_year":2025.9986,"duration":11.743},{"station":"TGD2","longitude":6.926218,"latitude":53.433617,"distance_km":18.14,"up_mm_yr":-1.006,"up_sigma_mm_yr":0.67,"first_year":2010.4175,"last_year":2026.3546,"duration":15.937},{"station":"EMSH","longitude":6.871604,"latitude":53.410861,"distance_km":18.25,"up_mm_yr":-3.203,"up_sigma_mm_yr":1.005,"first_year":2020.6927,"last_year":2025.9986,"duration":5.306}]},{"id":"tg-1060","psmsl_id":1060,"dataset":"CSL tide-gauge VLM","dataset_id":"tide_gauge_dangendorf_2026","name":"MIYAKE SIMA","longitude":139.480833,"source_longitude":139.480833,"latitude":34.067222,"up_mm_yr":-3.1352,"trend_intercept_mm":6247.6741,"first_year":1965.0,"last_year":2021.0,"sample_count":56,"abs_up":3.1352,"point_radius_m":30703,"series":[[1965.0,-80.815],[1966.0,-104.633],[1967.0,13.011],[1968.0,-48.048],[1969.0,-46.301],[1970.0,95.934],[1972.0,34.194],[1973.0,107.502],[1974.0,65.424],[1975.0,61.309],[1976.0,-162.798],[1977.0,18.946],[1978.0,-29.41],[1979.0,-3.201],[1980.0,110.885],[1981.0,135.974],[1982.0,132.93],[1983.0,60.279],[1984.0,97.941],[1985.0,72.57],[1986.0,110.668],[1987.0,-85.968],[1988.0,115.884],[1989.0,115.596],[1990.0,33.966],[1991.0,279.289],[1992.0,153.968],[1993.0,199.889],[1994.0,124.158],[1995.0,249.981],[1996.0,272.685],[1997.0,359.865],[1998.0,324.423],[1999.0,276.681],[2000.0,117.044],[2001.0,-169.687],[2002.0,-387.039],[2003.0,-338.541],[2004.0,-417.189],[2005.0,-265.103],[2006.0,-159.897],[2007.0,-173.585],[2008.0,-157.615],[2009.0,-102.109],[2010.0,-231.862],[2011.0,-255.625],[2012.0,-185.284],[2013.0,-73.698],[2014.0,-81.302],[2015.0,22.873],[2016.0,82.68],[2017.0,0.316],[2018.0,-127.944],[2019.0,-159.572],[2020.0,-15.66],[2021.0,-93.613]],"nearby_gnss":[{"station":"J600","longitude":139.478805,"latitude":34.075781,"distance_km":0.97,"up_mm_yr":12.348,"up_sigma_mm_yr":1.487,"first_year":1997.2594,"last_year":2026.3901,"duration":29.131},{"station":"I060","longitude":139.547154,"latitude":34.059111,"distance_km":6.18,"up_mm_yr":10.151,"up_sigma_mm_yr":1.23,"first_year":1994.2177,"last_year":2025.9329,"duration":31.715},{"station":"I059","longitude":139.503849,"latitude":34.121069,"distance_km":6.35,"up_mm_yr":8.999,"up_sigma_mm_yr":1.017,"first_year":1994.3956,"last_year":2026.3901,"duration":31.994},{"station":"J599","longitude":139.561765,"latitude":34.093765,"distance_km":8.02,"up_mm_yr":2.19,"up_sigma_mm_yr":1.894,"first_year":1997.2977,"last_year":2026.3901,"duration":29.092},{"station":"J601","longitude":139.612852,"latitude":33.884124,"distance_km":23.72,"up_mm_yr":3.052,"up_sigma_mm_yr":1.11,"first_year":1997.2485,"last_year":2026.3901,"duration":29.142},{"station":"X016","longitude":139.170942,"latitude":34.207228,"distance_km":32.49,"up_mm_yr":11.214,"up_sigma_mm_yr":8.163,"first_year":1999.206,"last_year":2001.2457,"duration":2.04},{"station":"I058","longitude":139.134454,"latitude":34.200479,"distance_km":35.16,"up_mm_yr":18.578,"up_sigma_mm_yr":2.515,"first_year":1994.2313,"last_year":2014.4778,"duration":20.247},{"station":"Z202","longitude":139.124554,"latitude":34.198739,"distance_km":35.91,"up_mm_yr":-8.746,"up_sigma_mm_yr":1.356,"first_year":2015.1047,"last_year":2026.3901,"duration":11.285},{"station":"J598","longitude":139.137575,"latitude":34.239914,"distance_km":36.96,"up_mm_yr":-5.018,"up_sigma_mm_yr":1.474,"first_year":1997.2129,"last_year":2026.3901,"duration":29.177},{"station":"J597","longitude":139.210939,"latitude":34.333121,"distance_km":38.6,"up_mm_yr":5.905,"up_sigma_mm_yr":1.813,"first_year":1997.2156,"last_year":2026.3901,"duration":29.174}]},{"id":"tg-1061","psmsl_id":1061,"dataset":"CSL tide-gauge VLM","dataset_id":"tide_gauge_dangendorf_2026","name":"KOZU SIMA","longitude":139.131667,"source_longitude":139.131667,"latitude":34.209167,"up_mm_yr":26.9401,"trend_intercept_mm":-53467.777,"first_year":1970.0,"last_year":2021.0,"sample_count":49,"abs_up":26.9401,"point_radius_m":47000,"series":[[1970.0,33.272],[1971.0,24.303],[1972.0,-118.795],[1974.0,-118.458],[1977.0,-284.062],[1978.0,-278.723],[1979.0,-217.19],[1980.0,-84.701],[1981.0,-142.713],[1982.0,-223.882],[1983.0,-255.215],[1984.0,-143.13],[1985.0,-128.452],[1986.0,-149.845],[1987.0,-293.88],[1988.0,-137.871],[1989.0,-91.792],[1990.0,-124.583],[1991.0,82.739],[1992.0,60.756],[1993.0,129.739],[1994.0,118.027],[1995.0,211.608],[1996.0,283.769],[1997.0,360.111],[1998.0,346.358],[1999.0,330.049],[2000.0,442.384],[2001.0,622.252],[2002.0,633.309],[2003.0,679.989],[2004.0,571.222],[2005.0,707.655],[2006.0,815.855],[2007.0,811.895],[2008.0,795.267],[2009.0,836.996],[2010.0,819.922],[2011.0,795.116],[2012.0,836.454],[2013.0,838.542],[2014.0,946.601],[2015.0,907.378],[2016.0,945.214],[2017.0,845.542],[2018.0,760.505],[2019.0,703.659],[2020.0,744.921],[2021.0,701.662]],"nearby_gnss":[{"station":"I058","longitude":139.134454,"latitude":34.200479,"distance_km":1.0,"up_mm_yr":18.578,"up_sigma_mm_yr":2.515,"first_year":1994.2313,"last_year":2014.4778,"duration":20.247},{"station":"Z202","longitude":139.124554,"latitude":34.198739,"distance_km":1.33,"up_mm_yr":-8.746,"up_sigma_mm_yr":1.356,"first_year":2015.1047,"last_year":2026.3901,"duration":11.285},{"station":"J598","longitude":139.137575,"latitude":34.239914,"distance_km":3.46,"up_mm_yr":-5.018,"up_sigma_mm_yr":1.474,"first_year":1997.2129,"last_year":2026.3901,"duration":29.177},{"station":"X016","longitude":139.170942,"latitude":34.207228,"distance_km":3.62,"up_mm_yr":11.214,"up_sigma_mm_yr":8.163,"first_year":1999.206,"last_year":2001.2457,"duration":2.04},{"station":"J597","longitude":139.210939,"latitude":34.333121,"distance_km":15.59,"up_mm_yr":5.905,"up_sigma_mm_yr":1.813,"first_year":1997.2156,"last_year":2026.3901,"duration":29.174},{"station":"I057","longitude":139.257911,"latitude":34.371825,"distance_km":21.49,"up_mm_yr":2.581,"up_sigma_mm_yr":1.319,"first_year":1994.2231,"last_year":2026.3901,"duration":32.167},{"station":"J600","longitude":139.478805,"latitude":34.075781,"distance_km":35.22,"up_mm_yr":12.348,"up_sigma_mm_yr":1.487,"first_year":1997.2594,"last_year":2026.3901,"duration":29.131},{"station":"I059","longitude":139.503849,"latitude":34.121069,"distance_km":35.62,"up_mm_yr":8.999,"up_sigma_mm_yr":1.017,"first_year":1994.3956,"last_year":2026.3901,"duration":31.994},{"station":"J596","longitude":139.270932,"latitude":34.519633,"distance_km":36.81,"up_mm_yr":3.327,"up_sigma_mm_yr":0.885,"first_year":1997.2129,"last_year":2026.3901,"duration":29.177},{"station":"J599","longitude":139.561765,"latitude":34.093765,"distance_km":41.61,"up_mm_yr":2.19,"up_sigma_mm_yr":1.894,"first_year":1997.2977,"last_year":2026.3901,"duration":29.092}]},{"id":"tg-1062","psmsl_id":1062,"dataset":"CSL tide-gauge VLM","dataset_id":"tide_gauge_dangendorf_2026","name":"MATSUYAMA II","longitude":132.712222,"source_longitude":132.712222,"latitude":33.858889,"up_mm_yr":1.595,"trend_intercept_mm":-3179.6752,"first_year":1964.0,"last_year":2014.0,"sample_count":50,"abs_up":1.595,"point_radius_m":28393,"series":[[1964.0,-42.439],[1965.0,-23.113],[1966.0,-73.433],[1967.0,-53.801],[1968.0,-29.645],[1969.0,-49.775],[1970.0,-13.551],[1971.0,-25.122],[1972.0,-31.565],[1973.0,-54.804],[1974.0,-58.914],[1975.0,-26.28],[1976.0,-18.141],[1977.0,-22.692],[1978.0,-28.823],[1979.0,-32.388],[1980.0,-35.296],[1981.0,-74.085],[1982.0,-24.649],[1983.0,10.067],[1984.0,1.289],[1985.0,8.427],[1986.0,-16.342],[1987.0,0.432],[1988.0,-0.043],[1989.0,-26.466],[1990.0,-8.529],[1991.0,-11.247],[1992.0,-11.587],[1993.0,30.953],[1994.0,-27.633],[1995.0,1.351],[1996.0,56.641],[1997.0,29.898],[1998.0,53.085],[1999.0,-4.587],[2000.0,20.036],[2001.0,22.538],[2002.0,-17.968],[2004.0,-2.993],[2005.0,39.238],[2006.0,26.98],[2007.0,22.469],[2008.0,25.98],[2009.0,20.225],[2010.0,32.001],[2011.0,36.978],[2012.0,-1.296],[2013.0,28.51],[2014.0,0.598]],"nearby_gnss":[{"station":"J679","longitude":132.78174,"latitude":33.959473,"distance_km":12.89,"up_mm_yr":3.822,"up_sigma_mm_yr":0.699,"first_year":1997.2485,"last_year":2026.3901,"duration":29.142},{"station":"J434","longitude":132.68397,"latitude":33.722597,"distance_km":15.38,"up_mm_yr":4.453,"up_sigma_mm_yr":0.623,"first_year":1996.2245,"last_year":2026.3901,"duration":30.166},{"station":"J433","longitude":132.911644,"latitude":33.796497,"distance_km":19.68,"up_mm_yr":2.858,"up_sigma_mm_yr":0.774,"first_year":1996.219,"last_year":2026.3901,"duration":30.171},{"station":"G048","longitude":132.798528,"latitude":33.642732,"distance_km":25.33,"up_mm_yr":2.582,"up_sigma_mm_yr":0.998,"first_year":2004.4983,"last_year":2026.3901,"duration":21.892},{"station":"G036","longitude":132.531631,"latitude":34.069231,"distance_km":28.71,"up_mm_yr":1.315,"up_sigma_mm_yr":0.648,"first_year":2004.4983,"last_year":2026.3901,"duration":21.892},{"station":"G047","longitude":133.047401,"latitude":33.884089,"distance_km":31.07,"up_mm_yr":1.637,"up_sigma_mm_yr":1.072,"first_year":2004.4983,"last_year":2026.3901,"duration":21.892},{"station":"J672","longitude":132.358337,"latitude":33.909933,"distance_km":33.16,"up_mm_yr":3.177,"up_sigma_mm_yr":0.559,"first_year":1997.2485,"last_year":2026.3901,"duration":29.142},{"station":"J680","longitude":132.487256,"latitude":33.611594,"distance_km":34.48,"up_mm_yr":2.729,"up_sigma_mm_yr":0.601,"first_year":1997.2129,"last_year":2026.3901,"duration":29.177},{"station":"J430","longitude":132.990232,"latitude":34.077887,"distance_km":35.36,"up_mm_yr":-0.774,"up_sigma_mm_yr":1.378,"first_year":1996.219,"last_year":2013.8152,"duration":17.596},{"station":"G197","longitude":132.990542,"latitude":34.079794,"distance_km":35.53,"up_mm_yr":1.387,"up_sigma_mm_yr":0.776,"first_year":2014.8008,"last_year":2026.3901,"duration":11.589}]},{"id":"tg-1064","psmsl_id":1064,"dataset":"CSL tide-gauge VLM","dataset_id":"tide_gauge_dangendorf_2026","name":"MINAMI IZU","longitude":138.883333,"source_longitude":138.883333,"latitude":34.616667,"up_mm_yr":1.7699,"trend_intercept_mm":-3518.4088,"first_year":1966.0,"last_year":2007.0,"sample_count":42,"abs_up":1.7699,"point_radius_m":28655,"series":[[1966.0,-32.98],[1967.0,-9.045],[1968.0,-84.175],[1969.0,-69.039],[1970.0,-12.635],[1971.0,-22.043],[1972.0,-47.207],[1973.0,1.395],[1974.0,6.562],[1975.0,26.065],[1976.0,-58.643],[1977.0,-31.715],[1978.0,-49.451],[1979.0,-33.158],[1980.0,-25.584],[1981.0,-0.111],[1982.0,-18.838],[1983.0,-4.998],[1984.0,-9.305],[1985.0,35.456],[1986.0,8.491],[1987.0,-20.486],[1988.0,-2.971],[1989.0,34.432],[1990.0,12.288],[1991.0,17.105],[1992.0,-4.195],[1993.0,17.753],[1994.0,20.791],[1995.0,29.415],[1996.0,-0.171],[1997.0,18.162],[1998.0,10.458],[1999.0,-18.673],[2000.0,-8.991],[2001.0,1.381],[2002.0,42.78],[2003.0,34.23],[2004.0,31.163],[2005.0,30.688],[2006.0,44.588],[2007.0,37.74]],"nearby_gnss":[{"station":"I086","longitude":138.838417,"latitude":34.61,"distance_km":4.18,"up_mm_yr":0.177,"up_sigma_mm_yr":0.807,"first_year":1994.5051,"last_year":2026.3901,"duration":31.885},{"station":"J628","longitude":138.939327,"latitude":34.698905,"distance_km":10.48,"up_mm_yr":0.134,"up_sigma_mm_yr":1.079,"first_year":1997.1362,"last_year":2019.5346,"duration":22.398},{"station":"G229","longitude":138.98418,"latitude":34.661604,"distance_km":10.49,"up_mm_yr":-2.566,"up_sigma_mm_yr":2.504,"first_year":2020.0219,"last_year":2026.3901,"duration":6.368},{"station":"S109","longitude":138.78422,"latitude":34.671626,"distance_km":10.93,"up_mm_yr":-5.355,"up_sigma_mm_yr":2.885,"first_year":1994.5654,"last_year":2000.7912,"duration":6.226},{"station":"J814","longitude":138.876473,"latitude":34.719474,"distance_km":11.45,"up_mm_yr":-0.496,"up_sigma_mm_yr":1.097,"first_year":1998.2122,"last_year":2026.3901,"duration":28.178},{"station":"J838","longitude":138.762791,"latitude":34.690255,"distance_km":13.73,"up_mm_yr":-2.714,"up_sigma_mm_yr":1.097,"first_year":2000.219,"last_year":2026.3901,"duration":26.171},{"station":"I053","longitude":138.989817,"latitude":34.75135,"distance_km":17.86,"up_mm_yr":0.455,"up_sigma_mm_yr":0.856,"first_year":1994.3929,"last_year":2026.3901,"duration":31.997},{"station":"I085","longitude":138.786063,"latitude":34.776075,"distance_km":19.83,"up_mm_yr":-0.26,"up_sigma_mm_yr":0.875,"first_year":1994.3956,"last_year":2026.3901,"duration":31.994},{"station":"G114","longitude":138.764202,"latitude":34.806898,"distance_km":23.79,"up_mm_yr":-1.068,"up_sigma_mm_yr":1.07,"first_year":2003.4387,"last_year":2026.3901,"duration":22.951},{"station":"J297","longitude":138.922255,"latitude":34.865589,"distance_km":27.91,"up_mm_yr":-0.613,"up_sigma_mm_yr":1.226,"first_year":1996.219,"last_year":2026.3901,"duration":30.171}]},{"id":"tg-1066","psmsl_id":1066,"dataset":"CSL tide-gauge VLM","dataset_id":"tide_gauge_dangendorf_2026","name":"JEJU","longitude":126.543056,"source_longitude":126.543056,"latitude":33.5275,"up_mm_yr":-2.8986,"trend_intercept_mm":5775.7203,"first_year":1964.0,"last_year":2021.0,"sample_count":55,"abs_up":2.8986,"point_radius_m":30348,"series":[[1964.0,87.502],[1965.0,57.214],[1966.0,45.132],[1967.0,115.087],[1968.0,114.32],[1969.0,78.086],[1970.0,44.962],[1971.0,66.453],[1972.0,71.536],[1973.0,97.09],[1974.0,28.018],[1975.0,67.016],[1976.0,75.816],[1977.0,38.636],[1978.0,60.201],[1979.0,26.759],[1980.0,14.658],[1981.0,-4.763],[1982.0,20.042],[1983.0,16.866],[1984.0,11.029],[1985.0,20.961],[1986.0,29.514],[1987.0,6.673],[1988.0,36.287],[1989.0,20.616],[1990.0,21.261],[1991.0,2.275],[1992.0,1.276],[1993.0,4.557],[1994.0,-3.211],[1995.0,-6.645],[1996.0,-27.419],[1997.0,-27.242],[1998.0,-1.429],[1999.0,-10.393],[2000.0,-39.546],[2001.0,-32.075],[2002.0,-54.395],[2003.0,-31.281],[2006.0,-71.635],[2007.0,-87.599],[2008.0,-76.56],[2010.0,-73.773],[2011.0,-42.129],[2012.0,-80.94],[2013.0,-21.088],[2014.0,-40.662],[2015.0,-43.927],[2016.0,-68.389],[2017.0,-52.066],[2018.0,-58.61],[2019.0,-46.529],[2020.0,-81.414],[2021.0,-65.788]],"nearby_gnss":[{"station":"CHJU","longitude":126.529825,"latitude":33.513925,"distance_km":1.94,"up_mm_yr":-8.467,"up_sigma_mm_yr":1.074,"first_year":1999.8303,"last_year":2020.3422,"duration":20.512},{"station":"JJBG","longitude":126.655848,"latitude":33.451508,"distance_km":13.45,"up_mm_yr":1.753,"up_sigma_mm_yr":3.609,"first_year":2018.5654,"last_year":2020.3422,"duration":1.777},{"station":"JEJU","longitude":126.462179,"latitude":33.288343,"distance_km":27.63,"up_mm_yr":-1.293,"up_sigma_mm_yr":0.555,"first_year":2000.4736,"last_year":2026.371,"duration":25.897},{"station":"JEJ1","longitude":126.904719,"latitude":33.467803,"distance_km":34.19,"up_mm_yr":1.581,"up_sigma_mm_yr":1.401,"first_year":2014.9541,"last_year":2020.7173,"duration":5.763},{"station":"MA04","longitude":126.269149,"latitude":33.11693,"distance_km":52.27,"up_mm_yr":0.55,"up_sigma_mm_yr":0.908,"first_year":2014.9541,"last_year":2020.3422,"duration":5.388},{"station":"DANG","longitude":126.602758,"latitude":34.098151,"distance_km":63.69,"up_mm_yr":1.535,"up_sigma_mm_yr":0.987,"first_year":2015.948,"last_year":2020.3422,"duration":4.394},{"station":"GEOM","longitude":127.322304,"latitude":34.007635,"distance_km":89.66,"up_mm_yr":1.512,"up_sigma_mm_yr":0.887,"first_year":2014.9541,"last_year":2020.3422,"duration":5.388}]},{"id":"tg-1067","psmsl_id":1067,"dataset":"CSL tide-gauge VLM","dataset_id":"tide_gauge_dangendorf_2026","name":"ANCHORAGE","longitude":-149.89,"source_longitude":-149.89,"latitude":61.238333,"up_mm_yr":-3.6627,"trend_intercept_mm":7399.0094,"first_year":1965.0,"last_year":2015.0,"sample_count":39,"abs_up":3.6627,"point_radius_m":31494,"series":[[1965.0,107.495],[1967.0,216.76],[1968.0,95.436],[1969.0,130.472],[1970.0,134.744],[1972.0,285.581],[1973.0,224.757],[1974.0,223.421],[1975.0,208.303],[1984.0,83.971],[1985.0,164.946],[1986.0,175.401],[1987.0,127.179],[1988.0,106.253],[1989.0,111.553],[1991.0,141.946],[1992.0,86.541],[1993.0,129.379],[1994.0,102.27],[1995.0,104.81],[1996.0,61.292],[1997.0,85.509],[1998.0,79.5],[1999.0,79.605],[2000.0,40.529],[2001.0,82.292],[2002.0,147.148],[2003.0,36.516],[2004.0,73.537],[2005.0,45.418],[2006.0,65.341],[2007.0,32.181],[2008.0,38.844],[2009.0,24.071],[2010.0,-9.55],[2012.0,28.886],[2013.0,29.233],[2014.0,-3.96],[2015.0,10.008]],"nearby_gnss":[{"station":"PMKZ","longitude":-149.923173,"latitude":61.283668,"distance_km":5.34,"up_mm_yr":4.053,"up_sigma_mm_yr":1.598,"first_year":2019.8877,"last_year":2026.371,"duration":6.483},{"station":"TSEA","longitude":-149.894976,"latitude":61.187326,"distance_km":5.68,"up_mm_yr":4.913,"up_sigma_mm_yr":0.75,"first_year":1999.4908,"last_year":2023.5428,"duration":24.052},{"station":"AKAC","longitude":-149.894876,"latitude":61.187134,"distance_km":5.7,"up_mm_yr":6.366,"up_sigma_mm_yr":3.945,"first_year":2023.488,"last_year":2026.3901,"duration":2.902},{"station":"ZAN1","longitude":-149.78025,"latitude":61.229202,"distance_km":5.96,"up_mm_yr":3.888,"up_sigma_mm_yr":0.82,"first_year":2002.9487,"last_year":2026.3901,"duration":23.441},{"station":"UAAG","longitude":-149.824094,"latitude":61.191071,"distance_km":6.33,"up_mm_yr":6.595,"up_sigma_mm_yr":1.289,"first_year":2003.6386,"last_year":2013.5441,"duration":9.905},{"station":"TBON","longitude":-149.785143,"latitude":61.179715,"distance_km":8.6,"up_mm_yr":4.13,"up_sigma_mm_yr":0.993,"first_year":2008.3203,"last_year":2026.3901,"duration":18.07},{"station":"ANC2","longitude":-149.983444,"latitude":61.175224,"distance_km":8.62,"up_mm_yr":3.65,"up_sigma_mm_yr":0.872,"first_year":2009.9411,"last_year":2026.3901,"duration":16.449},{"station":"QAKP","longitude":-149.984249,"latitude":61.156185,"distance_km":10.44,"up_mm_yr":2.886,"up_sigma_mm_yr":1.851,"first_year":2023.1075,"last_year":2026.371,"duration":3.264},{"station":"AC44","longitude":-149.567127,"latitude":61.242172,"distance_km":17.28,"up_mm_yr":4.355,"up_sigma_mm_yr":0.808,"first_year":2008.5969,"last_year":2026.3901,"duration":17.793},{"station":"FS63","longitude":-149.723282,"latitude":61.469672,"distance_km":27.22,"up_mm_yr":1.326,"up_sigma_mm_yr":1.449,"first_year":2019.6441,"last_year":2026.3901,"duration":6.746}]},{"id":"tg-1068","psmsl_id":1068,"dataset":"CSL tide-gauge VLM","dataset_id":"tide_gauge_dangendorf_2026","name":"BRIDGEPORT","longitude":-73.181667,"source_longitude":-73.181667,"latitude":41.173333,"up_mm_yr":-1.6092,"trend_intercept_mm":3213.2658,"first_year":1965.0,"last_year":2021.0,"sample_count":51,"abs_up":1.6092,"point_radius_m":28414,"series":[[1965.0,50.593],[1967.0,25.711],[1968.0,45.594],[1969.0,37.336],[1970.0,22.007],[1971.0,24.219],[1972.0,29.917],[1973.0,-9.457],[1974.0,25.422],[1975.0,34.81],[1976.0,55.047],[1977.0,48.277],[1978.0,26.086],[1979.0,68.081],[1980.0,31.732],[1981.0,35.564],[1982.0,23.168],[1983.0,15.62],[1984.0,15.685],[1985.0,-0.455],[1986.0,11.606],[1987.0,22.119],[1988.0,20.964],[1989.0,48.16],[1990.0,23.845],[1991.0,-1.274],[1992.0,2.995],[1995.0,12.664],[1996.0,12.935],[1997.0,1.201],[1998.0,-5.178],[1999.0,23.725],[2000.0,18.511],[2001.0,0.11],[2002.0,-13.115],[2003.0,6.409],[2004.0,0.753],[2005.0,-13.02],[2006.0,12.857],[2007.0,4.21],[2008.0,30.55],[2009.0,7.323],[2010.0,-37.926],[2012.0,-43.169],[2013.0,-36.654],[2014.0,-25.258],[2017.0,-57.149],[2018.0,-46.459],[2019.0,-82.612],[2020.0,-82.446],[2021.0,-45.607]],"nearby_gnss":[{"station":"CTBP","longitude":-73.19585,"latitude":41.175243,"distance_km":1.21,"up_mm_yr":-0.682,"up_sigma_mm_yr":0.82,"first_year":2020.6927,"last_year":2026.3901,"duration":5.697},{"station":"BRPT","longitude":-73.211837,"latitude":41.161679,"distance_km":2.84,"up_mm_yr":0.41,"up_sigma_mm_yr":1.499,"first_year":2018.6612,"last_year":2021.4757,"duration":2.814},{"station":"CTNH","longitude":-72.912227,"latitude":41.297676,"distance_km":26.43,"up_mm_yr":-1.099,"up_sigma_mm_yr":0.499,"first_year":2012.4736,"last_year":2026.3901,"duration":13.916},{"station":"SG06","longitude":-73.124958,"latitude":40.91468,"distance_km":29.15,"up_mm_yr":-1.103,"up_sigma_mm_yr":0.602,"first_year":2002.5873,"last_year":2012.2245,"duration":9.637},{"station":"CTDA","longitude":-73.507211,"latitude":41.065862,"distance_km":29.77,"up_mm_yr":-1.234,"up_sigma_mm_yr":0.445,"first_year":2005.4784,"last_year":2026.3901,"duration":20.912},{"station":"CTSF","longitude":-73.517717,"latitude":41.074484,"distance_km":30.22,"up_mm_yr":-0.855,"up_sigma_mm_yr":0.665,"first_year":2017.4702,"last_year":2026.3901,"duration":8.92},{"station":"NHVN","longitude":-72.874767,"latitude":41.334848,"distance_km":31.32,"up_mm_yr":-0.136,"up_sigma_mm_yr":1.588,"first_year":2018.6612,"last_year":2021.4784,"duration":2.817},{"station":"OXFD","longitude":-73.136817,"latitude":41.46401,"distance_km":32.54,"up_mm_yr":-0.806,"up_sigma_mm_yr":1.38,"first_year":2018.6612,"last_year":2021.4784,"duration":2.817},{"station":"CTDB","longitude":-73.443076,"latitude":41.39288,"distance_km":32.76,"up_mm_yr":-0.691,"up_sigma_mm_yr":0.809,"first_year":2020.7146,"last_year":2026.3901,"duration":5.676},{"station":"DNBY","longitude":-73.472713,"latitude":41.382614,"distance_km":33.66,"up_mm_yr":0.152,"up_sigma_mm_yr":1.474,"first_year":2018.6612,"last_year":2021.4784,"duration":2.817}]},{"id":"tg-1069","psmsl_id":1069,"dataset":"CSL tide-gauge VLM","dataset_id":"tide_gauge_dangendorf_2026","name":"VICTOR HARBOUR","longitude":138.635403,"source_longitude":138.635403,"latitude":-35.562481,"up_mm_yr":0.3919,"trend_intercept_mm":-782.8239,"first_year":1966.0,"last_year":2020.0,"sample_count":51,"abs_up":0.3919,"point_radius_m":26588,"series":[[1966.0,44.809],[1967.0,16.971],[1968.0,-18.0],[1969.0,-17.28],[1970.0,-15.026],[1971.0,4.887],[1972.0,-32.937],[1973.0,-12.631],[1974.0,-25.772],[1975.0,-16.202],[1977.0,-47.561],[1979.0,-22.99],[1980.0,5.83],[1981.0,-31.36],[1982.0,0.359],[1983.0,27.261],[1984.0,33.837],[1985.0,22.098],[1986.0,-6.496],[1987.0,11.867],[1988.0,-4.808],[1989.0,-63.857],[1990.0,-39.476],[1991.0,-5.288],[1992.0,10.898],[1993.0,1.861],[1994.0,-11.081],[1995.0,1.63],[1996.0,-18.598],[1997.0,-21.733],[1998.0,-6.881],[1999.0,-18.876],[2000.0,18.69],[2001.0,-0.359],[2003.0,4.505],[2004.0,-1.916],[2005.0,3.744],[2006.0,11.377],[2007.0,14.282],[2008.0,-13.916],[2009.0,12.507],[2010.0,24.304],[2012.0,0.374],[2013.0,-3.621],[2014.0,-7.139],[2015.0,40.783],[2016.0,31.916],[2017.0,14.293],[2018.0,6.749],[2019.0,16.46],[2020.0,-4.379]],"nearby_gnss":[{"station":"VCTH","longitude":138.612703,"latitude":-35.543598,"distance_km":2.94,"up_mm_yr":-0.648,"up_sigma_mm_yr":1.052,"first_year":2022.0862,"last_year":2026.3901,"duration":4.304},{"station":"VHB3","longitude":138.598947,"latitude":-35.558351,"distance_km":3.33,"up_mm_yr":-4.309,"up_sigma_mm_yr":3.62,"first_year":2019.729,"last_year":2021.0294,"duration":1.3},{"station":"MCKN","longitude":138.651455,"latitude":-35.521922,"distance_km":4.74,"up_mm_yr":-0.904,"up_sigma_mm_yr":1.004,"first_year":2014.13,"last_year":2018.59,"duration":4.46},{"station":"5YAN","longitude":138.350769,"latitude":-35.457175,"distance_km":28.3,"up_mm_yr":-0.542,"up_sigma_mm_yr":0.924,"first_year":2021.7248,"last_year":2026.3901,"duration":4.665},{"station":"MCLV","longitude":138.54338,"latitude":-35.218012,"distance_km":39.2,"up_mm_yr":4.004,"up_sigma_mm_yr":10.515,"first_year":2010.6721,"last_year":2015.2772,"duration":4.605},{"station":"5STR","longitude":138.895853,"latitude":-35.270307,"distance_km":40.16,"up_mm_yr":0.778,"up_sigma_mm_yr":1.028,"first_year":2021.9603,"last_year":2026.3901,"duration":4.43},{"station":"STBN","longitude":138.898271,"latitude":-35.252313,"distance_km":41.92,"up_mm_yr":-2.279,"up_sigma_mm_yr":1.475,"first_year":2017.6372,"last_year":2021.0294,"duration":3.392},{"station":"ONKP","longitude":138.489749,"latitude":-35.177346,"distance_km":44.82,"up_mm_yr":-0.029,"up_sigma_mm_yr":0.79,"first_year":2021.9192,"last_year":2026.3901,"duration":4.471},{"station":"PTSV","longitude":138.485718,"latitude":-35.094698,"distance_km":53.76,"up_mm_yr":-0.827,"up_sigma_mm_yr":0.408,"first_year":2010.6612,"last_year":2026.3901,"duration":15.729},{"station":"MTB2","longitude":138.860423,"latitude":-35.063421,"distance_km":59.13,"up_mm_yr":-0.263,"up_sigma_mm_yr":0.844,"first_year":2015.0007,"last_year":2021.0294,"duration":6.029}]},{"id":"tg-1070","psmsl_id":1070,"dataset":"CSL tide-gauge VLM","dataset_id":"tide_gauge_dangendorf_2026","name":"SELDOVIA","longitude":-151.72,"source_longitude":-151.72,"latitude":59.44,"up_mm_yr":8.5306,"trend_intercept_mm":-16950.9304,"first_year":1966.0,"last_year":2015.0,"sample_count":47,"abs_up":8.5306,"point_radius_m":38796,"series":[[1966.0,-174.548],[1967.0,-167.772],[1968.0,-194.825],[1969.0,-146.092],[1971.0,-103.055],[1972.0,-61.594],[1973.0,-116.91],[1974.0,-102.641],[1975.0,-109.287],[1976.0,-134.033],[1977.0,-162.542],[1978.0,-193.693],[1979.0,-68.187],[1980.0,-58.064],[1981.0,-59.708],[1982.0,-2.868],[1983.0,-45.206],[1984.0,-38.112],[1985.0,9.884],[1986.0,-2.729],[1987.0,-26.982],[1988.0,-19.968],[1989.0,28.067],[1990.0,59.409],[1991.0,59.831],[1992.0,55.087],[1993.0,71.645],[1994.0,68.686],[1995.0,80.376],[1996.0,112.062],[1997.0,121.02],[1998.0,91.025],[1999.0,123.717],[2000.0,108.411],[2001.0,119.303],[2002.0,159.533],[2003.0,126.791],[2004.0,155.165],[2005.0,149.439],[2006.0,156.745],[2007.0,188.126],[2008.0,163.479],[2009.0,192.241],[2012.0,180.738],[2013.0,215.69],[2014.0,184.112],[2015.0,218.021]],"nearby_gnss":[{"station":"SELD","longitude":-151.706672,"latitude":59.445709,"distance_km":0.99,"up_mm_yr":7.715,"up_sigma_mm_yr":0.641,"first_year":2000.8159,"last_year":2026.3901,"duration":25.574},{"station":"HDPW","longitude":-151.53119,"latitude":59.641683,"distance_km":24.82,"up_mm_yr":7.379,"up_sigma_mm_yr":0.898,"first_year":2010.8419,"last_year":2026.3901,"duration":15.548},{"station":"SPIT","longitude":-151.42699,"latitude":59.608049,"distance_km":24.94,"up_mm_yr":6.368,"up_sigma_mm_yr":0.878,"first_year":2011.8084,"last_year":2026.037,"duration":14.229},{"station":"PBAY","longitude":-151.272239,"latitude":59.572706,"distance_km":29.26,"up_mm_yr":9.617,"up_sigma_mm_yr":1.021,"first_year":2011.3785,"last_year":2026.3901,"duration":15.012},{"station":"AC03","longitude":-151.864534,"latitude":59.770637,"distance_km":37.65,"up_mm_yr":8.326,"up_sigma_mm_yr":0.787,"first_year":2007.9124,"last_year":2026.3901,"duration":18.478},{"station":"MCES","longitude":-151.257833,"latitude":59.746075,"distance_km":42.84,"up_mm_yr":8.996,"up_sigma_mm_yr":0.881,"first_year":2011.0171,"last_year":2026.3901,"duration":15.373},{"station":"VOZN","longitude":-151.125192,"latitude":59.808449,"distance_km":52.89,"up_mm_yr":9.963,"up_sigma_mm_yr":1.316,"first_year":2011.7947,"last_year":2025.399,"duration":13.604},{"station":"AC35","longitude":-150.793247,"latitude":59.375811,"distance_km":52.93,"up_mm_yr":10.437,"up_sigma_mm_yr":0.91,"first_year":2006.538,"last_year":2026.0123,"duration":19.474},{"station":"AC06","longitude":-150.890559,"latitude":59.763637,"distance_km":58.93,"up_mm_yr":8.324,"up_sigma_mm_yr":0.743,"first_year":2005.6947,"last_year":2026.3901,"duration":20.695},{"station":"AC18","longitude":-152.249532,"latitude":58.925957,"distance_km":64.63,"up_mm_yr":7.645,"up_sigma_mm_yr":0.723,"first_year":2008.3669,"last_year":2026.3901,"duration":18.023}]},{"id":"tg-1071","psmsl_id":1071,"dataset":"CSL tide-gauge VLM","dataset_id":"tide_gauge_dangendorf_2026","name":"PORT HARDY","longitude":-127.483333,"source_longitude":-127.483333,"latitude":50.716667,"up_mm_yr":0.3088,"trend_intercept_mm":-589.4593,"first_year":1965.0,"last_year":2021.0,"sample_count":55,"abs_up":0.3088,"point_radius_m":26463,"series":[[1965.0,6.733],[1966.0,15.432],[1967.0,12.619],[1968.0,7.951],[1969.0,4.865],[1970.0,24.917],[1971.0,15.898],[1972.0,-2.882],[1973.0,15.443],[1974.0,16.647],[1975.0,14.931],[1976.0,35.671],[1977.0,23.864],[1978.0,25.262],[1979.0,60.192],[1980.0,59.204],[1981.0,14.721],[1983.0,-7.192],[1984.0,-0.19],[1985.0,27.647],[1986.0,23.335],[1987.0,31.79],[1988.0,40.869],[1989.0,20.785],[1990.0,31.164],[1991.0,35.275],[1992.0,-4.28],[1993.0,38.809],[1994.0,26.125],[1995.0,38.385],[1997.0,31.564],[1998.0,23.94],[1999.0,48.559],[2000.0,22.386],[2001.0,31.969],[2002.0,61.889],[2003.0,54.98],[2004.0,29.082],[2005.0,41.56],[2006.0,32.589],[2007.0,53.601],[2008.0,17.79],[2009.0,17.822],[2010.0,13.996],[2011.0,14.674],[2012.0,4.021],[2013.0,29.523],[2014.0,8.557],[2015.0,17.533],[2016.0,30.144],[2017.0,37.442],[2018.0,36.734],[2019.0,48.781],[2020.0,45.43],[2021.0,21.351]],"nearby_gnss":[{"station":"BCPH","longitude":-127.375353,"latitude":50.685562,"distance_km":8.35,"up_mm_yr":3.233,"up_sigma_mm_yr":0.549,"first_year":2009.0048,"last_year":2026.371,"duration":17.366},{"station":"HOLB","longitude":-128.134998,"latitude":50.640353,"distance_km":46.69,"up_mm_yr":2.273,"up_sigma_mm_yr":0.475,"first_year":1994.0041,"last_year":2026.3901,"duration":32.386},{"station":"BCOV","longitude":-126.842644,"latitude":50.54428,"distance_km":49.09,"up_mm_yr":2.618,"up_sigma_mm_yr":0.501,"first_year":2000.8433,"last_year":2026.3628,"duration":25.52},{"station":"BPEB","longitude":-127.771748,"latitude":50.156701,"distance_km":65.53,"up_mm_yr":2.233,"up_sigma_mm_yr":0.942,"first_year":2018.4695,"last_year":2023.8056,"duration":5.336},{"station":"WOST","longitude":-126.604954,"latitude":50.212361,"distance_km":83.73,"up_mm_yr":2.387,"up_sigma_mm_yr":1.024,"first_year":2005.0705,"last_year":2017.1225,"duration":12.052},{"station":"WOSB","longitude":-126.570363,"latitude":50.160742,"distance_km":89.45,"up_mm_yr":4.096,"up_sigma_mm_yr":0.702,"first_year":2016.8761,"last_year":2026.3901,"duration":9.514},{"station":"ELIZ","longitude":-127.122665,"latitude":49.873053,"distance_km":97.24,"up_mm_yr":2.208,"up_sigma_mm_yr":0.497,"first_year":2000.6078,"last_year":2026.3901,"duration":25.782}]},{"id":"tg-1089","psmsl_id":1089,"dataset":"CSL tide-gauge VLM","dataset_id":"tide_gauge_dangendorf_2026","name":"MAISAKA","longitude":137.608889,"source_longitude":137.608889,"latitude":34.681944,"up_mm_yr":4.457,"trend_intercept_mm":-8884.6474,"first_year":1965.0,"last_year":2021.0,"sample_count":56,"abs_up":4.457,"point_radius_m":32685,"series":[[1965.0,-118.963],[1966.0,-132.497],[1967.0,-111.837],[1968.0,-127.612],[1969.0,-113.747],[1971.0,-80.697],[1972.0,-106.63],[1973.0,-37.526],[1974.0,-74.45],[1975.0,-86.742],[1976.0,-172.425],[1977.0,-79.139],[1978.0,-118.588],[1979.0,-91.335],[1980.0,-44.394],[1981.0,-12.105],[1982.0,-57.804],[1983.0,-61.916],[1984.0,-15.756],[1985.0,-3.363],[1986.0,-25.293],[1987.0,-78.119],[1988.0,-12.003],[1989.0,-0.979],[1990.0,-41.11],[1991.0,9.135],[1992.0,-18.802],[1993.0,29.732],[1994.0,31.441],[1995.0,34.775],[1996.0,51.236],[1997.0,31.645],[1998.0,2.558],[1999.0,-8.645],[2000.0,-30.405],[2001.0,1.154],[2002.0,60.222],[2003.0,57.011],[2004.0,19.184],[2005.0,79.551],[2006.0,112.474],[2007.0,84.937],[2008.0,51.502],[2009.0,58.388],[2010.0,95.847],[2011.0,82.721],[2012.0,67.053],[2013.0,66.697],[2014.0,137.683],[2015.0,110.576],[2016.0,127.53],[2017.0,112.497],[2018.0,87.977],[2019.0,69.669],[2020.0,102.385],[2021.0,86.334]],"nearby_gnss":[{"station":"I100","longitude":137.633361,"latitude":34.700947,"distance_km":3.08,"up_mm_yr":2.977,"up_sigma_mm_yr":1.782,"first_year":1994.412,"last_year":2004.731,"duration":10.319},{"station":"G136","longitude":137.636879,"latitude":34.702117,"distance_km":3.4,"up_mm_yr":1.495,"up_sigma_mm_yr":0.769,"first_year":2005.9165,"last_year":2026.3901,"duration":20.474},{"station":"H101","longitude":137.569424,"latitude":34.690781,"distance_km":3.74,"up_mm_yr":2.344,"up_sigma_mm_yr":1.214,"first_year":2016.7474,"last_year":2026.3901,"duration":9.643},{"station":"I104","longitude":137.514935,"latitude":34.718052,"distance_km":9.48,"up_mm_yr":3.912,"up_sigma_mm_yr":0.64,"first_year":1994.4011,"last_year":2026.3901,"duration":31.989},{"station":"I054","longitude":137.717233,"latitude":34.677615,"distance_km":9.92,"up_mm_yr":0.543,"up_sigma_mm_yr":1.296,"first_year":1994.2259,"last_year":2008.6489,"duration":14.423},{"station":"J821","longitude":137.680777,"latitude":34.752042,"distance_km":10.19,"up_mm_yr":3.111,"up_sigma_mm_yr":0.812,"first_year":1998.1602,"last_year":2026.3901,"duration":28.23},{"station":"G160","longitude":137.723379,"latitude":34.672312,"distance_km":10.52,"up_mm_yr":0.603,"up_sigma_mm_yr":0.778,"first_year":2008.8433,"last_year":2026.3901,"duration":17.547},{"station":"I103","longitude":137.55434,"latitude":34.808727,"distance_km":14.95,"up_mm_yr":3.858,"up_sigma_mm_yr":0.754,"first_year":1994.4011,"last_year":2026.3901,"duration":31.989},{"station":"G161","longitude":137.442456,"latitude":34.680382,"distance_km":15.22,"up_mm_yr":4.337,"up_sigma_mm_yr":0.646,"first_year":2008.8433,"last_year":2026.3901,"duration":17.547},{"station":"S048","longitude":137.7707,"latitude":34.740437,"distance_km":16.16,"up_mm_yr":2.674,"up_sigma_mm_yr":0.904,"first_year":2013.2485,"last_year":2026.3901,"duration":13.142}]},{"id":"tg-1090","psmsl_id":1090,"dataset":"CSL tide-gauge VLM","dataset_id":"tide_gauge_dangendorf_2026","name":"URAGAMI","longitude":135.896389,"source_longitude":135.896389,"latitude":33.558333,"up_mm_yr":-0.1192,"trend_intercept_mm":242.6056,"first_year":1965.0,"last_year":2021.0,"sample_count":50,"abs_up":0.1192,"point_radius_m":26179,"series":[[1965.0,-7.555],[1966.0,7.177],[1967.0,1.298],[1968.0,-23.708],[1969.0,5.498],[1971.0,31.312],[1972.0,-6.778],[1974.0,7.794],[1975.0,24.418],[1978.0,-75.451],[1979.0,-32.053],[1980.0,29.414],[1981.0,33.27],[1983.0,6.748],[1986.0,-15.233],[1987.0,-23.336],[1988.0,-2.033],[1989.0,5.484],[1990.0,33.115],[1991.0,12.848],[1992.0,23.18],[1993.0,7.892],[1994.0,20.411],[1995.0,30.296],[1996.0,47.09],[1997.0,34.252],[1998.0,37.754],[1999.0,8.429],[2000.0,12.316],[2001.0,9.981],[2002.0,30.431],[2003.0,10.902],[2004.0,-17.214],[2005.0,-5.079],[2006.0,40.64],[2007.0,58.336],[2008.0,-5.976],[2009.0,2.073],[2010.0,2.356],[2011.0,27.493],[2012.0,15.937],[2013.0,-2.606],[2014.0,29.312],[2015.0,-3.832],[2016.0,-0.465],[2017.0,-51.82],[2018.0,-8.181],[2019.0,-75.831],[2020.0,-11.398],[2021.0,-35.428]],"nearby_gnss":[{"station":"J376","longitude":135.92071,"latitude":33.583914,"distance_km":3.63,"up_mm_yr":0.71,"up_sigma_mm_yr":0.905,"first_year":1996.219,"last_year":2026.3901,"duration":30.171},{"station":"SMST","longitude":135.936954,"latitude":33.577855,"distance_km":4.34,"up_mm_yr":-3.38,"up_sigma_mm_yr":0.783,"first_year":2004.2738,"last_year":2026.3901,"duration":22.116},{"station":"Z113","longitude":135.834142,"latitude":33.52008,"distance_km":7.17,"up_mm_yr":-3.652,"up_sigma_mm_yr":0.69,"first_year":2005.3552,"last_year":2026.3901,"duration":21.035},{"station":"G012","longitude":135.882088,"latitude":33.668758,"distance_km":12.35,"up_mm_yr":1.291,"up_sigma_mm_yr":0.763,"first_year":2004.4983,"last_year":2026.3901,"duration":21.892},{"station":"G155","longitude":135.970597,"latitude":33.660805,"distance_km":13.31,"up_mm_yr":0.052,"up_sigma_mm_yr":0.732,"first_year":2008.8433,"last_year":2026.3901,"duration":17.547},{"station":"G208","longitude":135.773191,"latitude":33.475947,"distance_km":14.64,"up_mm_yr":-3.301,"up_sigma_mm_yr":0.638,"first_year":2003.2471,"last_year":2026.3901,"duration":23.143},{"station":"J070","longitude":135.764414,"latitude":33.48336,"distance_km":14.8,"up_mm_yr":-4.219,"up_sigma_mm_yr":0.717,"first_year":1994.7406,"last_year":2026.3901,"duration":31.649},{"station":"J826","longitude":135.70879,"latitude":33.637171,"distance_km":19.46,"up_mm_yr":0.976,"up_sigma_mm_yr":0.798,"first_year":1998.1602,"last_year":2026.3901,"duration":28.23},{"station":"Z203","longitude":135.666834,"latitude":33.493801,"distance_km":22.46,"up_mm_yr":-1.427,"up_sigma_mm_yr":0.891,"first_year":2014.7926,"last_year":2026.3901,"duration":11.598},{"station":"J316","longitude":136.010901,"latitude":33.741273,"distance_km":22.94,"up_mm_yr":0.496,"up_sigma_mm_yr":0.706,"first_year":1996.219,"last_year":2026.3901,"duration":30.171}]},{"id":"tg-1091","psmsl_id":1091,"dataset":"CSL tide-gauge VLM","dataset_id":"tide_gauge_dangendorf_2026","name":"OKADA","longitude":139.391389,"source_longitude":139.391389,"latitude":34.789444,"up_mm_yr":4.4635,"trend_intercept_mm":-8899.5107,"first_year":1965.0,"last_year":2021.0,"sample_count":56,"abs_up":4.4635,"point_radius_m":32695,"series":[[1965.0,-105.088],[1966.0,-110.718],[1967.0,-63.696],[1968.0,-105.6],[1969.0,-124.224],[1971.0,-86.683],[1972.0,-116.729],[1973.0,-71.513],[1974.0,-65.201],[1975.0,-78.911],[1976.0,-100.684],[1977.0,-96.461],[1978.0,-109.467],[1979.0,-107.864],[1980.0,-49.792],[1981.0,-71.13],[1982.0,-71.101],[1983.0,-104.742],[1984.0,-54.16],[1985.0,0.223],[1986.0,-8.085],[1987.0,-76.229],[1988.0,-43.476],[1989.0,-45.433],[1990.0,-49.392],[1991.0,-10.461],[1992.0,-41.04],[1993.0,14.792],[1994.0,-15.48],[1995.0,2.422],[1996.0,29.853],[1997.0,59.759],[1998.0,51.807],[1999.0,40.729],[2000.0,47.445],[2001.0,60.217],[2002.0,39.318],[2003.0,18.732],[2004.0,57.295],[2005.0,82.957],[2006.0,67.574],[2007.0,44.364],[2008.0,61.23],[2009.0,62.934],[2010.0,53.878],[2011.0,71.792],[2012.0,71.082],[2013.0,91.727],[2014.0,117.481],[2015.0,117.035],[2016.0,97.932],[2017.0,97.787],[2018.0,119.197],[2019.0,83.586],[2020.0,92.979],[2021.0,124.622]],"nearby_gnss":[{"station":"I051","longitude":139.381395,"latitude":34.784419,"distance_km":1.07,"up_mm_yr":1.887,"up_sigma_mm_yr":1.024,"first_year":1994.2204,"last_year":2026.3901,"duration":32.17},{"station":"X055","longitude":139.402544,"latitude":34.754259,"distance_km":4.04,"up_mm_yr":-1.023,"up_sigma_mm_yr":2.662,"first_year":2015.5264,"last_year":2026.1465,"duration":10.62},{"station":"J594","longitude":139.434018,"latitude":34.761544,"distance_km":4.98,"up_mm_yr":4.193,"up_sigma_mm_yr":1.143,"first_year":1997.2129,"last_year":2026.3901,"duration":29.177},{"station":"X075","longitude":139.396544,"latitude":34.732969,"distance_km":6.3,"up_mm_yr":-9.915,"up_sigma_mm_yr":3.036,"first_year":2015.5264,"last_year":2024.9555,"duration":9.429},{"station":"J595","longitude":139.358586,"latitude":34.737614,"distance_km":6.5,"up_mm_yr":2.813,"up_sigma_mm_yr":1.333,"first_year":1997.2129,"last_year":2026.3901,"duration":29.177},{"station":"I055","longitude":139.433218,"latitude":34.686785,"distance_km":12.04,"up_mm_yr":0.987,"up_sigma_mm_yr":0.852,"first_year":1994.2231,"last_year":2026.3901,"duration":32.167},{"station":"I062","longitude":139.124365,"latitude":34.878475,"distance_km":26.31,"up_mm_yr":0.813,"up_sigma_mm_yr":1.867,"first_year":1994.412,"last_year":2026.3901,"duration":31.978},{"station":"G113","longitude":139.13296,"latitude":34.895485,"distance_km":26.37,"up_mm_yr":1.73,"up_sigma_mm_yr":1.905,"first_year":2003.4387,"last_year":2023.165,"duration":19.726},{"station":"I048","longitude":139.131161,"latitude":34.939307,"distance_km":29.01,"up_mm_yr":2.505,"up_sigma_mm_yr":1.076,"first_year":1994.2505,"last_year":2020.4381,"duration":26.188},{"station":"X085","longitude":139.126329,"latitude":34.953218,"distance_km":30.27,"up_mm_yr":1.405,"up_sigma_mm_yr":1.287,"first_year":2015.5264,"last_year":2026.1054,"duration":10.579}]},{"id":"tg-1093","psmsl_id":1093,"dataset":"CSL tide-gauge VLM","dataset_id":"tide_gauge_dangendorf_2026","name":"AWA SIMA","longitude":139.255,"source_longitude":139.255,"latitude":38.467778,"up_mm_yr":-0.8908,"trend_intercept_mm":1778.098,"first_year":1968.0,"last_year":2021.0,"sample_count":52,"abs_up":0.8908,"point_radius_m":27336,"series":[[1968.0,83.762],[1969.0,31.709],[1971.0,14.237],[1973.0,-32.447],[1974.0,-1.869],[1975.0,26.044],[1976.0,17.633],[1977.0,36.991],[1978.0,27.343],[1979.0,16.547],[1980.0,9.899],[1981.0,18.938],[1982.0,26.012],[1983.0,4.677],[1984.0,41.388],[1985.0,25.946],[1986.0,15.205],[1987.0,4.472],[1988.0,63.871],[1989.0,32.176],[1990.0,-0.103],[1991.0,9.095],[1992.0,5.644],[1993.0,7.173],[1994.0,-10.668],[1995.0,-8.136],[1996.0,-10.769],[1997.0,-45.003],[1998.0,-18.845],[1999.0,-25.124],[2000.0,-31.993],[2001.0,-23.716],[2002.0,-33.963],[2003.0,-21.346],[2004.0,-47.211],[2005.0,-13.696],[2006.0,-28.641],[2007.0,-28.184],[2008.0,-13.501],[2009.0,-38.237],[2010.0,-51.847],[2011.0,-18.239],[2012.0,-31.233],[2013.0,-14.365],[2014.0,-6.878],[2015.0,11.716],[2016.0,0.158],[2017.0,17.84],[2018.0,7.419],[2019.0,20.296],[2020.0,10.277],[2021.0,0.315]],"nearby_gnss":[{"station":"J231","longitude":139.253363,"latitude":38.465389,"distance_km":0.3,"up_mm_yr":-1.196,"up_sigma_mm_yr":0.762,"first_year":1996.2218,"last_year":2026.3901,"duration":30.168},{"station":"G162","longitude":139.533845,"latitude":38.511192,"distance_km":24.74,"up_mm_yr":-2.449,"up_sigma_mm_yr":1.02,"first_year":2008.8433,"last_year":2026.3901,"duration":17.547},{"station":"G105","longitude":139.545985,"latitude":38.563334,"distance_km":27.46,"up_mm_yr":-3.529,"up_sigma_mm_yr":0.881,"first_year":2003.2471,"last_year":2026.3901,"duration":23.143},{"station":"J034","longitude":139.5558,"latitude":38.555544,"distance_km":27.93,"up_mm_yr":-3.004,"up_sigma_mm_yr":1.664,"first_year":1994.7077,"last_year":2007.8877,"duration":13.18},{"station":"J049","longitude":139.509589,"latitude":38.230686,"distance_km":34.47,"up_mm_yr":-2.233,"up_sigma_mm_yr":0.765,"first_year":1994.6146,"last_year":2026.3901,"duration":31.776},{"station":"J932","longitude":139.67455,"latitude":38.701161,"distance_km":44.76,"up_mm_yr":-4.618,"up_sigma_mm_yr":1.088,"first_year":2004.4983,"last_year":2026.3901,"duration":21.892},{"station":"J564","longitude":139.461705,"latitude":38.056181,"distance_km":49.2,"up_mm_yr":-0.385,"up_sigma_mm_yr":0.896,"first_year":1997.2457,"last_year":2026.3901,"duration":29.144},{"station":"J196","longitude":139.831791,"latitude":38.594032,"distance_km":52.1,"up_mm_yr":-1.935,"up_sigma_mm_yr":1.438,"first_year":1996.219,"last_year":2026.3901,"duration":30.171},{"station":"J197","longitude":139.74225,"latitude":38.146175,"distance_km":55.55,"up_mm_yr":-0.056,"up_sigma_mm_yr":1.162,"first_year":1996.219,"last_year":2026.3901,"duration":30.171},{"station":"Z212","longitude":139.351225,"latitude":37.929554,"distance_km":60.44,"up_mm_yr":-1.389,"up_sigma_mm_yr":1.115,"first_year":2015.885,"last_year":2026.3901,"duration":10.505}]},{"id":"tg-1094","psmsl_id":1094,"dataset":"CSL tide-gauge VLM","dataset_id":"tide_gauge_dangendorf_2026","name":"HAKATA","longitude":130.407778,"source_longitude":130.407778,"latitude":33.618889,"up_mm_yr":0.2599,"trend_intercept_mm":-514.9084,"first_year":1966.0,"last_year":2014.0,"sample_count":49,"abs_up":0.2599,"point_radius_m":26390,"series":[[1966.0,-3.941],[1967.0,-35.666],[1968.0,3.899],[1969.0,-39.809],[1970.0,-3.925],[1971.0,-2.148],[1972.0,-16.328],[1973.0,-15.722],[1974.0,1.482],[1975.0,-12.303],[1976.0,-20.008],[1977.0,5.452],[1978.0,10.953],[1979.0,10.327],[1980.0,4.775],[1981.0,-8.722],[1982.0,32.266],[1983.0,10.225],[1984.0,29.548],[1985.0,29.931],[1986.0,-5.469],[1987.0,1.369],[1988.0,21.598],[1989.0,-0.648],[1990.0,16.589],[1991.0,-1.746],[1992.0,-9.234],[1993.0,29.169],[1994.0,1.448],[1995.0,19.73],[1996.0,16.062],[1997.0,9.568],[1998.0,12.947],[1999.0,-1.58],[2000.0,3.129],[2001.0,-5.725],[2002.0,2.899],[2003.0,10.058],[2004.0,-1.039],[2005.0,-1.008],[2006.0,4.754],[2007.0,6.347],[2008.0,4.91],[2009.0,-3.708],[2010.0,1.117],[2011.0,3.097],[2012.0,-8.702],[2013.0,0.106],[2014.0,4.083]],"nearby_gnss":[{"station":"G062","longitude":130.296907,"latitude":33.683069,"distance_km":12.5,"up_mm_yr":-0.873,"up_sigma_mm_yr":0.566,"first_year":2004.4983,"last_year":2026.3901,"duration":21.892},{"station":"J087","longitude":130.476769,"latitude":33.73072,"distance_km":13.98,"up_mm_yr":-1.502,"up_sigma_mm_yr":0.574,"first_year":1994.7406,"last_year":2026.3901,"duration":31.649},{"station":"J451","longitude":130.52196,"latitude":33.500378,"distance_km":16.9,"up_mm_yr":-4.122,"up_sigma_mm_yr":0.584,"first_year":1996.219,"last_year":2026.3901,"duration":30.171},{"station":"J450","longitude":130.250822,"latitude":33.536142,"distance_km":17.21,"up_mm_yr":-2.348,"up_sigma_mm_yr":0.608,"first_year":1996.219,"last_year":2026.3901,"duration":30.171},{"station":"G063","longitude":130.675669,"latitude":33.579768,"distance_km":25.19,"up_mm_yr":-3.715,"up_sigma_mm_yr":0.697,"first_year":2004.4983,"last_year":2026.3901,"duration":21.892},{"station":"J771","longitude":130.444516,"latitude":33.346487,"distance_km":30.48,"up_mm_yr":-2.008,"up_sigma_mm_yr":0.683,"first_year":1997.243,"last_year":2026.3901,"duration":29.147},{"station":"G065","longitude":130.079272,"latitude":33.503037,"distance_km":33.05,"up_mm_yr":-1.059,"up_sigma_mm_yr":0.555,"first_year":2004.4983,"last_year":2026.3901,"duration":21.892},{"station":"J685","longitude":130.749552,"latitude":33.745508,"distance_km":34.62,"up_mm_yr":-5.117,"up_sigma_mm_yr":0.654,"first_year":1997.2129,"last_year":2026.3901,"duration":29.177},{"station":"J687","longitude":130.82389,"latitude":33.640463,"distance_km":38.6,"up_mm_yr":-1.155,"up_sigma_mm_yr":0.642,"first_year":1997.232,"last_year":2026.3901,"duration":29.158},{"station":"J454","longitude":130.268719,"latitude":33.274851,"distance_km":40.37,"up_mm_yr":-2.536,"up_sigma_mm_yr":0.617,"first_year":1996.219,"last_year":2026.3847,"duration":30.166}]},{"id":"tg-1095","psmsl_id":1095,"dataset":"CSL tide-gauge VLM","dataset_id":"tide_gauge_dangendorf_2026","name":"SAIGO","longitude":133.331111,"source_longitude":133.331111,"latitude":36.201389,"up_mm_yr":-0.0915,"trend_intercept_mm":185.1139,"first_year":1965.0,"last_year":2021.0,"sample_count":57,"abs_up":0.0915,"point_radius_m":26137,"series":[[1965.0,2.604],[1966.0,12.007],[1967.0,3.025],[1968.0,18.293],[1969.0,-22.692],[1970.0,14.262],[1971.0,-3.909],[1972.0,-11.072],[1973.0,-33.396],[1974.0,15.7],[1975.0,13.183],[1976.0,-6.517],[1977.0,11.582],[1978.0,6.215],[1979.0,10.983],[1980.0,11.042],[1981.0,3.516],[1982.0,-1.771],[1983.0,14.025],[1984.0,11.476],[1985.0,11.809],[1986.0,6.506],[1987.0,-19.848],[1988.0,21.07],[1989.0,15.023],[1990.0,8.086],[1991.0,-12.35],[1992.0,0.498],[1993.0,0.433],[1994.0,2.815],[1995.0,24.714],[1996.0,24.887],[1997.0,7.598],[1998.0,3.491],[1999.0,1.081],[2000.0,8.751],[2001.0,-11.441],[2002.0,-10.683],[2003.0,8.501],[2004.0,14.332],[2005.0,13.009],[2006.0,3.018],[2007.0,8.501],[2008.0,3.322],[2009.0,8.302],[2010.0,-6.67],[2011.0,5.609],[2012.0,-6.393],[2013.0,-7.566],[2014.0,-7.257],[2015.0,-13.884],[2016.0,2.88],[2017.0,-20.053],[2018.0,10.033],[2019.0,-4.367],[2020.0,-9.873],[2021.0,9.476]],"nearby_gnss":[{"station":"J382","longitude":133.23988,"latitude":36.28529,"distance_km":12.41,"up_mm_yr":-2.006,"up_sigma_mm_yr":0.709,"first_year":1996.219,"last_year":2026.3901,"duration":30.171},{"station":"J383","longitude":132.984378,"latitude":36.09321,"distance_km":33.38,"up_mm_yr":-1.766,"up_sigma_mm_yr":0.623,"first_year":1996.219,"last_year":2026.3901,"duration":30.171},{"station":"J656","longitude":133.137889,"latitude":35.563535,"distance_km":73.03,"up_mm_yr":-1.655,"up_sigma_mm_yr":0.638,"first_year":1997.2348,"last_year":2026.3901,"duration":29.155},{"station":"G015","longitude":133.495138,"latitude":35.506936,"distance_km":78.62,"up_mm_yr":-2.757,"up_sigma_mm_yr":0.586,"first_year":2004.4983,"last_year":2026.3901,"duration":21.892},{"station":"J654","longitude":133.339686,"latitude":35.43601,"distance_km":85.11,"up_mm_yr":-0.869,"up_sigma_mm_yr":1.032,"first_year":1997.2567,"last_year":2012.0931,"duration":14.836},{"station":"G187","longitude":133.338934,"latitude":35.434936,"distance_km":85.23,"up_mm_yr":-2.43,"up_sigma_mm_yr":0.731,"first_year":2012.7556,"last_year":2026.3901,"duration":13.634},{"station":"TOHK","longitude":133.699001,"latitude":35.4904,"distance_km":85.73,"up_mm_yr":-0.505,"up_sigma_mm_yr":1.319,"first_year":1994.7214,"last_year":2004.8296,"duration":10.108},{"station":"G135","longitude":133.699575,"latitude":35.490399,"distance_km":85.75,"up_mm_yr":-2.141,"up_sigma_mm_yr":0.642,"first_year":2004.8296,"last_year":2026.3901,"duration":21.561},{"station":"G018","longitude":132.921994,"latitude":35.49191,"distance_km":87.08,"up_mm_yr":-3.122,"up_sigma_mm_yr":0.813,"first_year":2004.4983,"last_year":2026.3901,"duration":21.892},{"station":"J074","longitude":133.058654,"latitude":35.433875,"distance_km":88.81,"up_mm_yr":-0.276,"up_sigma_mm_yr":0.589,"first_year":1994.6804,"last_year":2026.3901,"duration":31.71}]},{"id":"tg-1096","psmsl_id":1096,"dataset":"CSL tide-gauge VLM","dataset_id":"tide_gauge_dangendorf_2026","name":"NISINOOMOTE","longitude":130.992222,"source_longitude":130.992222,"latitude":30.735,"up_mm_yr":-0.0192,"trend_intercept_mm":38.7735,"first_year":1966.0,"last_year":2021.0,"sample_count":54,"abs_up":0.0192,"point_radius_m":26029,"series":[[1966.0,-10.661],[1967.0,-7.094],[1968.0,34.388],[1970.0,5.16],[1971.0,-11.675],[1972.0,-4.01],[1973.0,10.355],[1974.0,6.948],[1975.0,-17.778],[1976.0,-4.881],[1977.0,9.295],[1978.0,9.288],[1979.0,11.066],[1981.0,3.397],[1982.0,-15.994],[1983.0,-6.564],[1984.0,-15.507],[1985.0,22.12],[1986.0,23.901],[1987.0,-4.403],[1988.0,11.979],[1989.0,-2.918],[1990.0,-6.382],[1991.0,-12.716],[1992.0,-18.806],[1993.0,19.263],[1994.0,-3.336],[1995.0,4.968],[1996.0,3.528],[1997.0,0.904],[1998.0,-9.313],[1999.0,-25.091],[2000.0,-16.158],[2001.0,-23.546],[2002.0,17.133],[2003.0,1.234],[2004.0,-0.073],[2005.0,8.414],[2006.0,19.993],[2007.0,3.899],[2008.0,5.095],[2009.0,1.255],[2010.0,-6.596],[2011.0,31.694],[2012.0,-5.936],[2013.0,5.61],[2014.0,1.432],[2015.0,2.89],[2016.0,-4.6],[2017.0,-1.526],[2018.0,8.353],[2019.0,3.241],[2020.0,-5.047],[2021.0,-17.493]],"nearby_gnss":[{"station":"J724","longitude":131.028598,"latitude":30.753325,"distance_km":4.03,"up_mm_yr":-1.252,"up_sigma_mm_yr":0.683,"first_year":1997.232,"last_year":2026.3901,"duration":29.158},{"station":"GMSD","longitude":131.015565,"latitude":30.556445,"distance_km":19.98,"up_mm_yr":-0.785,"up_sigma_mm_yr":1.067,"first_year":2003.9671,"last_year":2026.371,"duration":22.404},{"station":"J492","longitude":130.96422,"latitude":30.530867,"distance_km":22.86,"up_mm_yr":-1.196,"up_sigma_mm_yr":0.756,"first_year":1996.3066,"last_year":2026.3901,"duration":30.084},{"station":"J726","longitude":130.903233,"latitude":30.398676,"distance_km":38.36,"up_mm_yr":-1.331,"up_sigma_mm_yr":0.785,"first_year":1997.2485,"last_year":2026.3901,"duration":29.142},{"station":"J491","longitude":130.72306,"latitude":31.106205,"distance_km":48.61,"up_mm_yr":-0.933,"up_sigma_mm_yr":0.805,"first_year":1996.219,"last_year":2026.3901,"duration":30.171},{"station":"J493","longitude":130.638376,"latitude":30.381721,"distance_km":51.88,"up_mm_yr":-0.965,"up_sigma_mm_yr":1.04,"first_year":1996.2464,"last_year":2026.3901,"duration":30.144},{"station":"C004","longitude":130.413995,"latitude":30.814354,"distance_km":55.94,"up_mm_yr":1.482,"up_sigma_mm_yr":1.745,"first_year":2021.7385,"last_year":2026.371,"duration":4.633},{"station":"G093","longitude":130.867108,"latitude":31.242747,"distance_km":57.7,"up_mm_yr":-2.313,"up_sigma_mm_yr":0.836,"first_year":2004.4983,"last_year":2026.3901,"duration":21.892},{"station":"J099","longitude":131.087534,"latitude":31.258533,"distance_km":58.92,"up_mm_yr":0.802,"up_sigma_mm_yr":1.021,"first_year":1994.7214,"last_year":2026.3901,"duration":31.669},{"station":"J490","longitude":130.640359,"latitude":31.235224,"distance_km":64.95,"up_mm_yr":-3.233,"up_sigma_mm_yr":0.777,"first_year":1996.2464,"last_year":2026.3901,"duration":30.144}]},{"id":"tg-1097","psmsl_id":1097,"dataset":"CSL tide-gauge VLM","dataset_id":"tide_gauge_dangendorf_2026","name":"ODOMARI","longitude":130.689167,"source_longitude":130.689167,"latitude":31.023611,"up_mm_yr":0.4688,"trend_intercept_mm":-934.6275,"first_year":1966.0,"last_year":2021.0,"sample_count":55,"abs_up":0.4688,"point_radius_m":26703,"series":[[1966.0,-13.228],[1967.0,-20.361],[1968.0,-3.947],[1969.0,-15.641],[1970.0,-0.995],[1971.0,-18.391],[1972.0,-59.343],[1973.0,-37.508],[1974.0,-52.879],[1975.0,-42.243],[1976.0,8.695],[1977.0,-0.418],[1978.0,8.955],[1979.0,-9.898],[1980.0,10.742],[1981.0,-9.364],[1982.0,43.04],[1983.0,47.111],[1984.0,17.125],[1986.0,-9.388],[1987.0,27.466],[1988.0,42.722],[1989.0,-29.018],[1990.0,32.574],[1991.0,-10.733],[1992.0,-43.174],[1993.0,3.159],[1994.0,-29.585],[1995.0,6.872],[1996.0,29.464],[1997.0,2.193],[1998.0,-2.765],[1999.0,-1.585],[2000.0,39.397],[2001.0,-5.284],[2002.0,-15.871],[2003.0,-12.882],[2004.0,-6.67],[2005.0,47.387],[2006.0,-4.761],[2007.0,23.603],[2008.0,18.724],[2009.0,7.098],[2010.0,-10.626],[2011.0,-21.408],[2012.0,-27.883],[2013.0,17.496],[2014.0,-17.946],[2015.0,0.727],[2016.0,-23.109],[2017.0,13.679],[2018.0,51.288],[2019.0,30.085],[2020.0,11.769],[2021.0,18.54]],"nearby_gnss":[{"station":"J491","longitude":130.72306,"latitude":31.106205,"distance_km":9.73,"up_mm_yr":-0.933,"up_sigma_mm_yr":0.805,"first_year":1996.219,"last_year":2026.3901,"duration":30.171},{"station":"J490","longitude":130.640359,"latitude":31.235224,"distance_km":23.98,"up_mm_yr":-3.233,"up_sigma_mm_yr":0.777,"first_year":1996.2464,"last_year":2026.3901,"duration":30.144},{"station":"G093","longitude":130.867108,"latitude":31.242747,"distance_km":29.67,"up_mm_yr":-2.313,"up_sigma_mm_yr":0.836,"first_year":2004.4983,"last_year":2026.3901,"duration":21.892},{"station":"C004","longitude":130.413995,"latitude":30.814354,"distance_km":35.08,"up_mm_yr":1.482,"up_sigma_mm_yr":1.745,"first_year":2021.7385,"last_year":2026.371,"duration":4.633},{"station":"G092","longitude":130.540596,"latitude":31.377236,"distance_km":41.78,"up_mm_yr":-3.461,"up_sigma_mm_yr":0.777,"first_year":2004.4983,"last_year":2026.3901,"duration":21.892},{"station":"J724","longitude":131.028598,"latitude":30.753325,"distance_km":44.19,"up_mm_yr":-1.252,"up_sigma_mm_yr":0.683,"first_year":1997.232,"last_year":2026.3901,"duration":29.158},{"station":"J098","longitude":130.299483,"latitude":31.264591,"distance_km":45.75,"up_mm_yr":-1.345,"up_sigma_mm_yr":0.612,"first_year":1994.7406,"last_year":2026.3901,"duration":31.649},{"station":"J099","longitude":131.087534,"latitude":31.258533,"distance_km":46.04,"up_mm_yr":0.802,"up_sigma_mm_yr":1.021,"first_year":1994.7214,"last_year":2026.3901,"duration":31.669},{"station":"J723","longitude":130.274984,"latitude":30.784655,"distance_km":47.62,"up_mm_yr":-1.718,"up_sigma_mm_yr":0.772,"first_year":1997.2129,"last_year":2026.3901,"duration":29.177},{"station":"KNYA","longitude":130.878578,"latitude":31.425309,"distance_km":48.16,"up_mm_yr":-2.577,"up_sigma_mm_yr":1.504,"first_year":1995.1978,"last_year":2026.3901,"duration":31.192}]},{"id":"tg-1098","psmsl_id":1098,"dataset":"CSL tide-gauge VLM","dataset_id":"tide_gauge_dangendorf_2026","name":"SUMOTO","longitude":134.906667,"source_longitude":134.906667,"latitude":34.340556,"up_mm_yr":-6.8977,"trend_intercept_mm":13751.9691,"first_year":1965.0,"last_year":2021.0,"sample_count":55,"abs_up":6.8977,"point_radius_m":36347,"series":[[1965.0,256.204],[1966.0,206.392],[1967.0,155.02],[1968.0,204.113],[1969.0,162.854],[1970.0,164.405],[1971.0,102.667],[1972.0,72.601],[1973.0,25.159],[1974.0,115.436],[1975.0,48.819],[1976.0,223.376],[1977.0,108.701],[1978.0,87.986],[1979.0,104.376],[1980.0,83.095],[1981.0,27.835],[1982.0,152.478],[1983.0,172.306],[1984.0,117.457],[1985.0,185.23],[1986.0,28.043],[1987.0,81.805],[1988.0,9.806],[1989.0,30.508],[1990.0,140.979],[1991.0,55.678],[1992.0,-16.978],[1993.0,14.458],[1994.0,-95.043],[1995.0,-87.328],[1997.0,-17.94],[1998.0,-58.821],[1999.0,-99.664],[2000.0,-38.244],[2001.0,-112.68],[2002.0,-139.454],[2003.0,-92.025],[2005.0,-73.114],[2006.0,38.8],[2007.0,7.478],[2008.0,-32.966],[2009.0,-111.06],[2010.0,-124.716],[2011.0,-24.288],[2012.0,-52.401],[2013.0,-90.209],[2014.0,-162.096],[2015.0,-69.801],[2016.0,-190.389],[2017.0,-228.681],[2018.0,-108.521],[2019.0,-231.438],[2020.0,-283.504],[2021.0,-283.817]],"nearby_gnss":[{"station":"J361","longitude":134.881528,"latitude":34.349768,"distance_km":2.53,"up_mm_yr":-1.779,"up_sigma_mm_yr":0.645,"first_year":1996.271,"last_year":2026.3901,"duration":30.119},{"station":"J362","longitude":134.735191,"latitude":34.33433,"distance_km":15.76,"up_mm_yr":-0.244,"up_sigma_mm_yr":0.692,"first_year":1996.219,"last_year":2026.3901,"duration":30.171},{"station":"J369","longitude":135.065975,"latitude":34.271463,"distance_km":16.53,"up_mm_yr":0.506,"up_sigma_mm_yr":0.558,"first_year":1996.219,"last_year":2026.3901,"duration":30.171},{"station":"J360","longitude":134.860973,"latitude":34.49332,"distance_km":17.5,"up_mm_yr":-1.738,"up_sigma_mm_yr":0.81,"first_year":1996.219,"last_year":2026.3901,"duration":30.171},{"station":"J363","longitude":134.736536,"latitude":34.22367,"distance_km":20.33,"up_mm_yr":0.269,"up_sigma_mm_yr":0.533,"first_year":1996.2628,"last_year":2026.3901,"duration":30.127},{"station":"J359","longitude":135.024076,"latitude":34.577054,"distance_km":28.42,"up_mm_yr":-1.201,"up_sigma_mm_yr":0.617,"first_year":1996.219,"last_year":2026.3901,"duration":30.171},{"station":"G004","longitude":135.219945,"latitude":34.326462,"distance_km":28.81,"up_mm_yr":2.293,"up_sigma_mm_yr":0.748,"first_year":2004.4983,"last_year":2026.3901,"duration":21.892},{"station":"J673","longitude":134.605026,"latitude":34.17181,"distance_km":33.48,"up_mm_yr":-0.161,"up_sigma_mm_yr":0.602,"first_year":1997.2348,"last_year":2026.3901,"duration":29.155},{"station":"G117","longitude":135.191539,"latitude":34.144145,"distance_km":34.1,"up_mm_yr":4.246,"up_sigma_mm_yr":0.647,"first_year":2003.447,"last_year":2025.692,"duration":22.245},{"station":"J069","longitude":135.221492,"latitude":34.157685,"distance_km":35.37,"up_mm_yr":3.697,"up_sigma_mm_yr":0.77,"first_year":1994.7406,"last_year":2026.3901,"duration":31.649}]},{"id":"tg-1099","psmsl_id":1099,"dataset":"CSL tide-gauge VLM","dataset_id":"tide_gauge_dangendorf_2026","name":"OSAKA","longitude":135.432778,"source_longitude":135.432778,"latitude":34.658056,"up_mm_yr":-1.5631,"trend_intercept_mm":3110.405,"first_year":1965.0,"last_year":2021.0,"sample_count":57,"abs_up":1.5631,"point_radius_m":28345,"series":[[1965.0,131.513],[1966.0,124.201],[1967.0,87.336],[1968.0,59.542],[1969.0,61.551],[1970.0,46.564],[1971.0,63.909],[1972.0,20.252],[1973.0,32.97],[1974.0,-12.627],[1975.0,-5.299],[1976.0,-18.085],[1977.0,-33.357],[1978.0,-18.603],[1979.0,-6.835],[1980.0,-20.23],[1981.0,-57.353],[1982.0,28.92],[1983.0,36.391],[1984.0,45.07],[1985.0,51.937],[1986.0,-34.031],[1987.0,8.179],[1988.0,-12.662],[1989.0,-24.51],[1990.0,74.177],[1991.0,6.059],[1992.0,-23.744],[1993.0,-20.26],[1994.0,-42.358],[1995.0,-41.588],[1996.0,-57.276],[1997.0,-35.284],[1998.0,-51.103],[1999.0,-55.411],[2000.0,-10.753],[2001.0,-28.04],[2002.0,-38.933],[2003.0,-46.157],[2004.0,-44.462],[2005.0,-29.645],[2006.0,-79.106],[2007.0,0.946],[2008.0,-39.886],[2009.0,-53.946],[2010.0,-55.327],[2011.0,-32.256],[2012.0,-50.091],[2013.0,-13.501],[2014.0,-50.875],[2015.0,-37.515],[2016.0,-18.253],[2017.0,0.697],[2018.0,16.354],[2019.0,29.541],[2020.0,28.479],[2021.0,-30.964]],"nearby_gnss":[{"station":"J336","longitude":135.518491,"latitude":34.677906,"distance_km":8.14,"up_mm_yr":1.661,"up_sigma_mm_yr":1.241,"first_year":1996.219,"last_year":2019.0992,"duration":22.88},{"station":"J355","longitude":135.380382,"latitude":34.72425,"distance_km":8.78,"up_mm_yr":1.746,"up_sigma_mm_yr":0.644,"first_year":1996.219,"last_year":2026.3901,"duration":30.171},{"station":"G227","longitude":135.528004,"latitude":34.66866,"distance_km":8.79,"up_mm_yr":3.88,"up_sigma_mm_yr":2.117,"first_year":2019.5428,"last_year":2026.3901,"duration":6.847},{"station":"J337","longitude":135.481343,"latitude":34.52731,"distance_km":15.2,"up_mm_yr":4.078,"up_sigma_mm_yr":0.63,"first_year":1996.2601,"last_year":2026.3901,"duration":30.13},{"station":"J353","longitude":135.34178,"latitude":34.790904,"distance_km":16.95,"up_mm_yr":-0.294,"up_sigma_mm_yr":0.651,"first_year":1996.219,"last_year":2026.3901,"duration":30.171},{"station":"J761","longitude":135.618822,"latitude":34.621053,"distance_km":17.51,"up_mm_yr":2.616,"up_sigma_mm_yr":0.836,"first_year":1997.2485,"last_year":2026.3901,"duration":29.142},{"station":"J067","longitude":135.500974,"latitude":34.837999,"distance_km":20.96,"up_mm_yr":1.902,"up_sigma_mm_yr":0.84,"first_year":1994.7159,"last_year":2026.3901,"duration":31.674},{"station":"J356","longitude":135.172289,"latitude":34.686988,"distance_km":24.04,"up_mm_yr":-0.226,"up_sigma_mm_yr":0.711,"first_year":1996.219,"last_year":2026.3901,"duration":30.171},{"station":"J763","longitude":135.706029,"latitude":34.698335,"distance_km":25.38,"up_mm_yr":1.542,"up_sigma_mm_yr":0.788,"first_year":1997.2129,"last_year":2026.3901,"duration":29.177},{"station":"J351","longitude":135.215907,"latitude":34.812189,"distance_km":26.2,"up_mm_yr":0.226,"up_sigma_mm_yr":0.903,"first_year":1996.2601,"last_year":2026.3901,"duration":30.13}]},